Event Name,Date,Month,Venue,Venue2,Level of Licence,WA,Entry Details,Licence Number,Longitude,Latitude
Kingston AC & Polytechnic Harriers Hammer/Weight Invitation,15-Jan,Jan,Weir Archer Athletics Track (Kingsmeadow),Kingston,1,,,OUT 23/009,-0.2836903,51.4052927
Swindon Harriers Winter Throws Series,21-Jan,Jan,County Ground - Swindon,Swindon,1,,,OUT 22/690,-1.77101507,51.56446595
Oxford University v Cambridge UniversityVarsity Field Events Relays,11-Feb,Feb,Lee Valley Athletics Centre - Outdoor,Lee Valley,1,,,OUT 23/063,-0.038032,51.629996
Barnsley AC Winter Track,15-Feb,Feb,Dorothy Hyman Sports Centre,Cudworth,1,,https://www.barnsleyac.co.uk/club-events/dorothy-hyman-track-series/,OUT 23/053,-1.411029309,53.57425995
Swindon Harriers Winter Throws Series,18-Feb,Feb,County Ground - Swindon,Swindon,1,,,OUT 22/690,-1.77101507,51.56446595
Basingstoke & Mid Hants AC Winter Throws,18-Feb,Feb,Down Grange Athletic Track,Basingstoke,1,,http://bmhac.co.uk/?doing_wp_cron=1664551191.7364919185638427734375,OUT 22/706,-1.1265625,51.2483125
Isle of Wight AC Winter Series Event 3,18-Feb,Feb,"Ray Scovell Athletics Track, formerley Fairway Athletics Centre (Sandown)",Sandown,1,,,OUT 23/076,-1.1669513,50.6589395
UK Winter Long Throws Championships,19-Feb,Feb,Paula Radcliffe Athletics Stadium,Loughborough,2,WA E,,OUT 23/002,-1.230372,52.769183
Barnsley AC Winter Track,22-Feb,Feb,Dorothy Hyman Sports Centre,Cudworth,1,,https://www.barnsleyac.co.uk/club-events/dorothy-hyman-track-series/,OUT 23/053,-1.411029309,53.57425995
Isle of Wight AC Winter Series Event 3,25-Feb,Feb,"Ray Scovell Athletics Track, formerley Fairway Athletics Centre (Sandown)",Sandown,1,,,OUT 23/076,-1.1669513,50.6589395
University of Portsmouth Athletics Club Cup Championship,4-Mar,Mar,Mountbatten Centre,Portsmouth,1,,https://linktr.ee/uopathletics,OUT 23/012,-1.082616998,50.82464535
BMAF Winter Throws Championships,4-Mar,Mar,Oxford Horspath Athletics Stadium,Horspath,1,,,OUT23/115,-1.1871875,51.7374375
Molly Barnett Open Track Walks including the England Athletics Winter Track Championship,4-Mar,Mar,Coventry Athletic Track - University of Warwick,Coventry,2,,https://meets.rosterathletics.com/public/competitions/details/participants?id=13034 ,OUT 23/121,-1.510477,52.4081812
Track48,10-Mar,Mar,Omagh Athletics Track,Omagh,2,,,OUT 23/110,-7.3029907,54.5992486
Basingstoke & Mid Hants AC Winter Throws,11-Mar,Mar,Down Grange Athletic Track,Basingstoke,1,,http://bmhac.co.uk/?doing_wp_cron=1664551191.7364919185638427734375,OUT 22/706,-1.1265625,51.2483125
Track48,11-Mar,Mar,Omagh Athletics Track,Omagh,2,,,OUT 23/110,-7.3029907,54.5992486
Waverley Early Throws,12-Mar,Mar,Charterhouse School - Godalming,Godalming,1,,,OUT 23/071,-0.6288628353,51.19606035
Track48,12-Mar,Mar,Omagh Athletics Track,Omagh,2,,,OUT 23/110,-7.3029907,54.5992486
SWAA Universities Spring Open Meet,15-Mar,Mar,Exeter Arena,Exeter,1,,https://sw-athletics-academy.co.uk/events/swaa-south-west-universities-spring-open-meeting-2023/,OUT 23/140,-3.491320974,50.73765245
Swindon Harriers Winter Throws Series,18-Mar,Mar,County Ground - Swindon,Swindon,1,,,OUT 22/690,-1.77101507,51.56446595
University of Leicester Running and Athletics Open Meet,18-Mar,Mar,Saffron Lane Stadium,Leicester,1,,https://l.facebook.com/l.php?u=https%3A%2F%2Fwww.leicesterunion.com%2Fevents%2F7792%2F4458%2F%3Ffbclid%3DIwAR1eWHMczMXZAQ8bdWEamE6TtTy19dDi6J5BG11tibpkfP4D2aQVmGSuKMs&h=AT0NKMOeUuboEzUkdF2Mj2LOb3MaJOq8HzKCH50wwHo83xw5XFC1zP6bYXs2lvaQdoDAJ3rhMJnqySAIxjfc4CKyFrQg8Zb47rIRfe2kpL8VGNlSMtXBcQPbkQLhy93tJn1ELwi-pJg,OUT 23/069,-1.134269109,52.6137
West Cheshire AC 25th Anniversary Open Meeting,18-Mar,Mar,Ellesmere Port Sports Village,Ellesmere Port,1,,https://wcac.niftyentries.com/Track-Field-Open-Meetings-2023,OUT 23/079,-2.894311448,53.26567295
Cumbria School of Hammer 2301,18-Mar,Mar,Sheepmount Athletics Stadium,Carlisle,1,,,OUT 23/095,-2.947561,54.902903
University of Birmingham Winter Throws & Distance Meet,18-Mar,Mar,University of Birmingham,Birmingham (U),1,,https://data.opentrack.run/en-gb/x/2023/GBR/uobwinterthrows/,OUT 23/116,-1.93012,52.45082
Derby Early Season Track Test,18-Mar,Mar,Moorways Athletics Stadium,Derby,1,,,OUT 23/176,-1.457212,52.891228
Lancaster Cup,18-Mar,Mar,Salt Ayre Sports Centre,Lancaster,1,,,OUT 23/197,-2.822278792,54.0553877
Trafford Medal Meetings,19-Mar,Mar,Longford Park Athletics Stadium,Stretford,1,,https://www.traffordac.co.uk/php/index.php?script=home.php,OUT 23/022,-2.28935,53.44636
Nuneaton Winter Warm Up,19-Mar,Mar,The Pingles Stadium,Nuneaton,1,,https://sites.google.com/thepinglesstadium.com/eapilotevent,OUT 23/187,-1.464162493,52.515688
London Varsity Series ,19-Mar,Mar,Southwark Park,Southwark,1,,https://studentsunionucl.org/whats-on/events-activities/london-varsity-series-2023-athletics,OUT 23/206,-0.05635831365,51.4951658
Mark Cawte Memorial Spring  Open Meeting,22-Mar,Mar,County Ground Track - Swindon,Swindon,1,,,OUT 23/059,-1.77101507,51.56446595
Bracknell AC 43rd Young Athlete Open Meeting,25-Mar,Mar,Bracknell Sports & Leisure Centre Athletics Stadium,Bracknell,1,,,OUT 23/011,-0.7449925,51.4143513
Humber County AA  Open Series 1,25-Mar,Mar,King George V Stadium,Grimsby,1,,,OUT 23/081,-0.0590485,53.555316
Cumbria School of Hammer 2301,25-Mar,Mar,Sheepmount Athletics Stadium,Carlisle,1,,,OUT 23/096,-2.947561,54.902903
Mansfield Harriers Spring Track & Field Open,26-Mar,Mar,Berry Hill Park Athletic Track,Mansfield,1,,,OUT 23/026,-1.1771875,53.1288125
Bournemouth Open,26-Mar,Mar,Kings Park Athletic Track,Bournemouth,1,,https://data.opentrack.run/en-gb/x/2023/GBR/bac-spring-open-23/,OUT 23/057,-1.8339375,50.7334375
West Cheshire AC 25th Anniversary Open Meeting,26-Mar,Mar,Ellesmere Port Sports Village,Ellesmere Port,1,,https://wcac.niftyentries.com/Track-Field-Open-Meetings-2023,OUT 23/079,-2.894311448,53.26567295
Spenborough AC - The Spring Open Meeting,26-Mar,Mar,Princess Mary Athletic Stadium,Cleckheaton,1,,https://www.spenac.co.uk/calendar/event/the-spring-open-2023-556105,OUT 23/168,-1.7140939,53.7264346
Peterborough & Nene Valley Distance Sunday ,26-Mar,Mar,Embankment Athletics Track,Peterborough,1,,https://meets.rosterathletics.com/public/competitions/details/about?id=13234,OUT 23/184,-0.233043,52.570904
LUCA Pre-BUCS Open Meeting ,26-Mar,Mar,Millenium Arena Battersea Park,Battersea Park,1,,https://data.opentrack.run/en-gb/x/2023/GBR/luca-open/,OUT 23/228,-0.146969,51.47698
Crawley AC Open Early Open ,26-Mar,Mar,K2 Athletics Stadium,Crawley,1,,https://crawleyac.net/index.php/enter-opens-online/enter-online-sunday-26th-march,OUT 23/231,-0.1918738,51.0973656
Avon/SGS Junior Open Meeting,27-Mar,Mar,Kip Keino Athletics Stadium,Stoke Gifford,1,,,OUT 23/119,-2.5569375,51.5126875
Burton AC Club Championships,27-Mar,Mar,Shobnall Athletics Track,Burton,1,,https://form.jotform.com/211173927289059,OUT 23/156,-0.56667,53.26667
Corby AC Open Meeting,28-Mar,Mar,Rockingham Triangle Sports Stadium (Corby),Corby,1,,https://entry4sports.co.uk/#/show-entry/408,OUT 23/123,-0.71468749,52.5070625
Northern Universities Cup,29-Mar,Mar,Longford Park Athletics Stadium,Stretford,1,,,OUT 23/020,-2.28935,53.44636
Isle of Man League,29-Mar,Mar,National Sports Centre (IOM),Douglas,1,,,OUT 23/224,-4.504653,54.152616
Burton AC Club Championships,30-Mar,Mar,Shobnall Athletics Track,Burton,1,,https://form.jotformeu.com/211175896880366,OUT 23/156,-0.56667,53.26667
South London Athletics Network Early Season Open,1-Apr,Apr,David Weir Leisure Centre (formerly Sutton Arena),Carshalton,1,,https://data.opentrack.run/en-gb/x/2023/GBR/slanapr1/ ,OUT 23/018,-0.1814375,51.3841875
Basingstoke & Mid Hants Open,1-Apr,Apr,Down Grange Athletic Track,Basingstoke,1,,https://data.opentrack.run/en-gb/x/2023/GBR/bmhacyoungathletesopen23/,OUT 23/039,-1.1265625,51.2483125
Bury AC Spring Throws Event,1-Apr,Apr,Market Street Athletics Track,Bury,1,,https://www.race-results.co.uk/results/2023/,OUT 23/067,-2.323851,53.591353
Waverley Early Throws,1-Apr,Apr,Charterhouse School - Godalming,Godalming,1,,,OUT 23/071,-0.6288628353,51.19606035
Stevenage & North Herts Athletic Club Track Open (Beds & Herts Athletes Only),1-Apr,Apr,Ridlins Wood Athletics Track,Stevenage,1,,https://www.snhac.org.uk/membership.php ,OUT 23/082,-0.2027155,51.9016663
Harrow Spring Throws & Jumps,1-Apr,Apr,Bannister Sports Centre,Harrow,1,,https://www.harrowac.co.uk/,OUT 23/142,-0.3521277401,51.61165605
Surrey CAA Disability County Championships/Open Disability & Throws Meeting,1-Apr,Apr,Weir Archer Athletics Track (Kingsmeadow),Kingston,2,,https://www.jctsportssolutions.com/event-booking/,OUT 23/163,-0.2836903,51.4052927
Lee Valley April Open,1-Apr,Apr,Lee Valley Athletics Centre - Outdoor,Lee Valley,1,,,OUT 23/233,-0.038032,51.629996
Nuneaton Season Opener,1-Apr,Apr,The Pingles Stadium,Nuneaton,2,WA F,https://sites.google.com/thepinglesstadium.com/eapilotevent,OUT 23/241,-1.464162493,52.515688
Liverpool Harriers & AC  Open Meeting,2-Apr,Apr,Wavertree Athletic Track,Liverpool,1,,https://www.race-results.co.uk/results/2023/,OUT 23/014,-2.9239375,53.3958125
Winchester & District AC Season Opener,2-Apr,Apr,University of Winchester,Winchester,1,,https://data.opentrack.run/en-gb/x/2023/GBR/wadacseasonopener23/,OUT 23/016,-1.3038125,51.05431249
Trafford Medal Meetings,2-Apr,Apr,Longford Park Athletics Stadium,Stretford,1,,https://www.traffordac.co.uk/php/index.php?script=home.php,OUT 23/022,-2.28935,53.44636
Havering AC Spring Warm Up Open,2-Apr,Apr,Hornchurch Stadium,Hornchurch,1,,,OUT 23/024,0.2383170571,51.5565905
Peterborough & Nene Valley AC Track Sunday ,2-Apr,Apr,Embankment Athletics Track,Peterborough,1,,https://meets.rosterathletics.com/public/competitions/details/about?id=13235,OUT 23/040,-0.233043,52.570904
Boston Anniversary Open Throws & Jumps,2-Apr,Apr,Princess Royal Sports Arena (DABSI),Boston,1,,,OUT 23/051,-0.069759,52.9771639
City of Portsmouth Spring Open Meeting,2-Apr,Apr,Mountbatten Centre,Portsmouth,1,,www.athleticevents.co.uk/aprilopen.html,OUT 23/072,-1.082616998,50.82464535
Charles Kear Memorial Open Graded Meeting,2-Apr,Apr,Tilsley Park Athletics Track,Abingdon,1,,https://meets.rosterathletics.com/public/competitions/details/about?id=12784,OUT 23/090,-1.2779715,51.6714842
Plymouth Spring Warm Up,2-Apr,Apr,Brickfields Athletic Track,Plymouth,1,,https://plymouthac.co.uk/event/city-of-plymouth-ac-spring-warm-up/,OUT 23/202,-4.1689375,50.3718125
Nuneaton Season Opener,2-Apr,Apr,The Pingles Stadium,Nuneaton,2,WA F,https://sites.google.com/thepinglesstadium.com/eapilotevent,OUT 23/241,-1.464162493,52.515688
Derby Athletics Development Association Midweek Opens,4-Apr,Apr,Moorways Athletics Stadium,Derby,1,,,OUT 23/109,-1.457212,52.891228
Watford Harriers Open Graded Meetings,5-Apr,Apr,Woodside Stadium,Watford,2,WA F,,OUT 23/092,-0.3945440682,51.69587595
Watford Open Field Events,5-Apr,Apr,Woodside Stadium,Watford,1,,,OUT 23/100,-0.3945440682,51.69587595
Isle of Man League,5-Apr,Apr,National Sports Centre (IOM),Douglas,1,,,OUT 23/224,-4.504653,54.152616
Day of the 5000m and 3000m PBs,8-Apr,Apr,Par Recreation Ground,Par,1,,,OUT 23/087,-4.7050945,50.3494152
Bill Whistlecroft Spring Open Yeovil inc. South West Sapphire League,8-Apr,Apr,Bill Whistlecroft Sports Stadium (Yeovil Athletics Arena),Yeovil,2,WA F,https://www.yeovilolympiads.com/yeovil-open-meetings/spring-open,OUT 23/091,-2.6318629,50.9420451
Be Fit Today Track Academy Outdoor Series 1,8-Apr,Apr,Lee Valley Athletics Centre - Outdoor,Lee Valley,1,,,OUT 23/244,-0.038032,51.629996
Colchester Harriers Throws Development Meet,9-Apr,Apr,Colchester Station Athletics Track,Colchester,1,,,OUT 23/118,0.89618749,51.8816875
Bill Whistlecroft Spring Open Yeovil inc. South West Sapphire League,10-Apr,Apr,Bill Whistlecroft Sports Stadium (Yeovil Athletics Arena),Yeovil,2,WA F,https://www.yeovilolympiads.com/yeovil-open-meetings/spring-open,OUT 23/091,-2.6318629,50.9420451
Norman Fowler Memorial Easter Monday Open Meeting,10-Apr,Apr,Tonbridge School Athletics Track,Tonbridge,1,,https://data.opentrack.run/en-gb/x/2023/GBR/taceom/ ,OUT 23/188,0.275167,51.200872
"Reading AC Club Championships - Field Events only eligible for Power of 10, no track",10-Apr,Apr,Palmer Park Athletics Track,Reading,1,,,OUT 23/278,-0.9696512,51.456659
Crawley AC Easter Monday Open,10-Apr,Apr,K2 Athletics Stadium,Crawley,1,,https://crawleyac.net/index.php/enter-opens-online/enter-online-easter-monday-10-04-23,OUT 23/283,-0.1918738,51.0973656
Telford Spring Warm-Up,12-Apr,Apr,Telford Athletics Stadium,Telford,1,,,OUT 23/220,-2.449812,52.7073978
Tommy Clay Development Meeting,14-Apr,Apr,Princess Royal Sports Arena (DABSI),Boston,1,,,OUT 23/052,-0.069759,52.9771639
Athletics Norfolk Spring Open Norwich,14-Apr,Apr,Sportspark at UEA,Norwich,1,,,OUT 23/207,1.2410625,52.6238125
Reading AC Development League,14-Apr,Apr,Palmer Park Athletic Track,Reading,1,,,OUT 23/305,-0.9696512,51.456659
"Crawley A.I.M. Charity 6, 12, and 24 Hour Race",15-Apr,Apr,K2 Athletics Stadium,Crawley,2,,www.crawley6and12hourraces.com,OUT 23/003,-0.1918738,51.0973656
Cambridge Harriers Young Athlete Trials,15-Apr,Apr,Sutcliffe Park Athletics Track,Eltham,1,,,OUT 23/064,0.0541253,51.4505687
Poole AC Open Meeting,15-Apr,Apr,Ashdown Leisure Centre,Poole,1,,,OUT 23/085,-1.9664201,50.7487411
Scottish National Athletics League ,15-Apr,Apr,Grangemouth Sports Stadium,Grangemouth,2,WA F,,OUT 23/097,-3.7081875,56.0053125
Liverpool Jumps & Throws,15-Apr,Apr,Wavertree Athletic Track,Liverpool,2,WA F,https://www.liverpoolthrowsjumps.co.uk/,OUT 23/105,-2.9239375,53.3958125
Douglas Bedford Memorial Open Meeting ,15-Apr,Apr,Thornes Park Athletics Stadium,Wakefield,1,,,OUT 23/130,-1.51464,53.67606
Norman Park International Challenge,15-Apr,Apr,Norman Park Athletic Track,Bromley,2,WA F,,OUT 23/144,0.0213125,51.3868125
Jack Kee Memorial Throws Meeting,15-Apr,Apr,Stantonbury Stadium,Milton Keynes,2,,http://www.mkac.org.uk/2023/02/saturday-april-15-jack-kee-memorial-throws-meeting/,OUT 23/153,-0.769329,52.058685
Warrington AC Spring Open Meeting,15-Apr,Apr,Victoria Park Arena,Warrington,1,,https://www.trybooking.co.uk/CCGW,OUT 23/160,-2.573880055,53.38632335
Rugby Easter Open,15-Apr,Apr,The Queen's Diamond Julbilee Centre,Rugby,1,,https://entry4sports.co.uk/#/,OUT 23/161,-1.254627,52.365789
Yate & District Throws & Jumps Club Open inc South West Sapphire League,15-Apr,Apr,Yate Outdoor Sports Complex,Yate,1,,,OUT 23/199,-2.4243125,51.55581249
Clive Marsh Spring Warm Up Meeting,15-Apr,Apr,Par Recreation Ground,Par,1,,https://www.newquayandpar.co.uk/,OUT 23/201,-4.7050945,50.3494152
Kettering Town Harriers Field Events Only - Open Meeting,15-Apr,Apr,Kettering Athletic Track,Kettering,1,,https://entry4sports.co.uk/#/,OUT 23/232,-0.728004,52.3994233
LICC London Inter-City Challenge,15-Apr,Apr,Stonex Stadium,Hendon,2,,https://entry4sports.co.uk/#/,OUT 23/249,-0.2236569504,51.60371995
Isle of Wight Spring Throws,15-Apr,Apr,Fairway Athletics Centre (Sandown),Sandown,1,,,OUT 23/273,-1.1655271,50.6588065
Coventry Spring Meet,15-Apr,Apr,Coventry Athletic Track - University of Warwick,Coventry,2,,,OUT 23/296,-1.510477,52.4081812
Yate & District Sprints & Hurdles C23  inc. South West Sapphire League,16-Apr,Apr,Yate Outdoor Sports Complex,Yate,1,,https://gratimhow.github.io/SandHInfoPage.html,OUT 23/013,-2.4243125,51.55581249
Wessex Young Athletes' League,16-Apr,Apr,Charlton Centre Athletics Track,Andover,1,,https://www.wessexleaguetandf.co.uk/,OUT 23/038,-1.5098125,51.2201875
Wessex Young Athletes' League,16-Apr,Apr,Oxford Horspath Athletics Stadium,Horspath,1,,https://www.wessexleaguetandf.co.uk/,OUT 23/038,-1.1871875,51.7374375
Peterborough & Nene Valley AC Jumps Sunday ,16-Apr,Apr,Embankment Athletics Track,Peterborough,1,,https://meets.rosterathletics.com/public/competitions/details/about?id=13201,OUT 23/042,-0.233043,52.570904
Kieran Maxwell Memorial Open,16-Apr,Apr,Middlesbrough Sports Village,Middlesbrough,1,,https://www.kieranmaxwellopen.co.uk/,OUT 23/049,-1.210556246,54.54434965
Watford Harriers Minors Meetings,16-Apr,Apr,Woodside Stadium,Watford,1,,https://watfordharriers.org.uk/,OUT 23/062,-0.3945440682,51.69587595
Herts Phoenix AC Pre-Season Meeting,16-Apr,Apr,Stuart Storey Athletic Track - Wodson Park,Ware,1,,,OUT 23/167,-0.0333125,51.8239375
Windsor Slough Eton & Hounslow Spring Open Meeting,16-Apr,Apr,Thames Valley Athletics Centre (Eton),Eton,2,WA F,https://wseh.co.uk/,OUT 23/173,-0.5959682922,51.49453235
Walton Winter Throws,16-Apr,Apr,Xcel Sports Hub - Waterside Drive,Walton,1,,,OUT 23/194,-0.411091,51.398763
Harrow LICC Open Track & Jumps,16-Apr,Apr,Bannister Sports Centre,Harrow,1,, https://data.opentrack.run/en-gb/x/2023/GBR/harr16042023/,OUT 23/212,-0.3521277401,51.61165605
Southampton Throws Invitation,16-Apr,Apr,University of Winchester,Winchester,1,,,OUT 23/238,-1.3038125,51.05431249
Great West Open - Ken Trickey Memorial - inc. South West Sapphire League,16-Apr,Apr,Exeter Arena,Exeter,1,,,OUT 23/264,-3.491320974,50.73765245
Huntingdonshire AC Club Championships,16-Apr,Apr,"One Leisure Outdoor Centre, St. Ives",St. Ives,1,,,OUT 23/272,-0.092947,52.336512
Coventry Spring Meet,16-Apr,Apr,Coventry Athletic Track - University of Warwick,Coventry,2,,,OUT 23/296,-1.510477,52.4081812
Invicta East Kent AC Open Meeting,17-Apr,Apr,Canterbury High School,Canterbury,1,,https://invictaeastkentac.org.uk/index.php,OUT 23/312,1.0634828,51.2793854
Peterborough & Nene Valley  Barrier Night,18-Apr,Apr,Embankment Athletics Track,Peterborough,1,,https://meets.rosterathletics.com/public/competitions/details/about?id=13202,OUT 23/218,-0.233043,52.570904
Kettering Town Harriers Evening Open,18-Apr,Apr,Kettering Athletics Track,Kettering,1,,https://entry4sports.co.uk/#/,OUT 23/318,-0.717797,52.396803
Watford Harriers Open Graded Meetings,19-Apr,Apr,Woodside Stadium,Watford,2,WA F,,OUT 23/092,-0.3945440682,51.69587595
Watford Open Field Events,19-Apr,Apr,Woodside Stadium,Watford,1,,,OUT 23/100,-0.3945440682,51.69587595
Midland Veterans League - North,19-Apr,Apr,Telford Athletics Stadium,Telford,1,,https://mvtfl.wordpress.com/,OUT 23/136,-2.449812,52.7073978
Kingston AC & Polytechnic Harriers Open Meeting,19-Apr,Apr,Weir Archer Athletics Track (Kingsmeadow),Kingston,1,,https://data.opentrack.run/en-gb/x/2023/GBR/kingston-open-1/,OUT 23/279,-0.2836903,51.4052927
Isle of Man Athletics Open Meeting,19-Apr,Apr,National Sports Complex,Douglas,1,,,OUT 23/333,-4.504653,54.152616
BMC Regional Race,20-Apr,Apr,Beckett Park Athletics Centre,Leeds (B),1,,https://www.britishmilersclub.com/,OUT 23/192,-1.5951875,53.82806249
Aztec Track & Field Series,20-Apr,Apr,Footes Lane (Garenne Stand),St. Peter Port,1,,,OUT 23/230,-2.5639734,49.4645552
Huntingdonshire AC Club Championships,20-Apr,Apr,"One Leisure Outdoor Centre, St. Ives",St. Ives,1,,,OUT 23/272,-0.092947,52.336512
Tommy Clay Development Meeting,21-Apr,Apr,Princess Royal Sports Arena (DABSI),Boston,1,,,OUT 23/052,-0.069759,52.9771639
Athletics Norfolk Spring Open,21-Apr,Apr,Lynnsport Athletics Track,King's Lynn,1,,,OUT 23/183,0.3954774,52.7538673
Sussex Under 15 League - No Pole Vault,21-Apr,Apr,Withdean Stadium,Brighton,1,,,OUT 23/288,-0.1593261361,50.85215175
Centurion Track 100,22-Apr,Apr,Bedford International Athletics Stadium,Bedford,2,,https://centurionrunning.com/races/centurion-track-100-2023,OUT 23/001,-0.4418125,52.1336875
Leigh Harriers Spring Throws Open Meeting,22-Apr,Apr,Leigh Sports Village,Leigh,2,WA F,https://www.leighharriers.org/,OUT 23/025,-2.5305682,53.4883788
Moulton Easter Invitational,22-Apr,Apr,Moulton College Athletics Track,Moulton,1,,https://entry4sports.co.uk/#/,OUT 23/037,-0.8684375,52.29981249
Afternoon of 5000s,22-Apr,Apr,Mary Peters Stadium,Belfast,2,WA F,,OUT 23/088,-5.967179,54.548531
Milton Keynes Open Meeting,22-Apr,Apr,Stantonbury Stadium,Milton Keynes,1,,http://www.mkac.org.uk/,OUT 23/132,-0.769329,52.058685
Woodford Green with Essex Ladies Pre-Season Open Graded Meeting,22-Apr,Apr,Ashton Playing Fields,Woodford,1,,,OUT 23/141,0.05032673229,51.6073283
Midland Counties League Division 4SE,22-Apr,Apr,North Oxfordshire Academy,Banbury,1,,https://midland-athletics.co.uk/disciplines/league/,OUT 23/172,-1.368062378,52.0729955
Loughborough Open inc. BUCS 10000m,22-Apr,Apr,Paula Radcliffe Athletics Stadium,Loughborough,2,WA F,,OUT 23/175,-1.230372,52.769183
Kingston upon Hull Spring Open,22-Apr,Apr,Costello Stadium,Hull,1,,https://meets.rosterathletics.com/public/competitions/details/about?id=12780,OUT 23/191,-0.4107359,53.7372742
Wycombe Phoenix Harriers' Invitational & Club Championships 2023 - inc. Bucks & Oxon U15 & U17 3000m Championships,22-Apr,Apr,Stoke Mandeville Stadium,Stoke Mandeville,1,,,OUT 23/216,-0.784342,51.787885
Midland Counties League Division 4NE,22-Apr,Apr,Shobnall Athletics Track,Burton,1,,https://midland-athletics.co.uk/disciplines/league/,OUT 23/234,-0.56667,53.26667
Isle of Wight Spring Throws,22-Apr,Apr,Fairway Athletics Centre (Sandown),Sandown,1,,,OUT 23/273,-1.1655271,50.6588065
Midland Counties League Division 2,22-Apr,Apr,Tamworth Athletics Track,Tamworth,1,,https://midland-athletics.co.uk/disciplines/league/,OUT 23/285,-1.6671875,52.6188125
Cambridge University AC Open,22-Apr,Apr,Cambridge University Athletics Track,Cambridge,1,,,OUT 23/314,0.098906,52.206767
Cumbria League No hammer/pole vault,22-Apr,Apr,Cumbria Sports Academy,Whitehaven,1,,,OUT 23/337,-3.5569948,54.5332739
Mid Lancs Track & Field League,22-Apr,Apr,Witton Park Track,Blackburn,1,,http://www.midlancs.org.uk/,OUT 23/352,-2.5148125,53.7391875
Wessex Young Athletes' League,23-Apr,Apr,Tilsley Park Athletics Track,Abingdon,1,,https://www.wessexleaguetandf.co.uk/,OUT 23/038,-1.2779715,51.6714842
Wessex Young Athletes' League,23-Apr,Apr,Kings Park Athletic Track,Bournemouth,1,,https://www.wessexleaguetandf.co.uk/,OUT 23/038,-1.8339375,50.7334375
North East Youth Development League - Division 1,23-Apr,Apr,Shildon - Stadium 2000,Shildon,1,,http://www.neydl.website,OUT 23/048,-1.648251,54.632837
North East Youth Development League - Division 2,23-Apr,Apr,Monkton Stadium,Jarrow,1,,http://www.neydl.website,OUT 23/048,-1.497931582,54.9656323
Eastern Young Athletes League,23-Apr,Apr,Sportspark at UEA,Norwich,1,,http://eyal.org.uk/,OUT 23/061,1.2410625,52.6238125
Eastern Young Athletes League,23-Apr,Apr,Embankment Athletics Track,Peterborough,1,,http://eyal.org.uk/,OUT 23/061,-0.233043,52.570904
Eastern Young Athletes League,23-Apr,Apr,Blackshots Athletic Stadium (Thurrock),Grays,1,,http://eyal.org.uk/,OUT 23/061,0.3470567,51.4935653
Eastern Young Athletes League,23-Apr,Apr,Stuart Storey Athletic Track - Wodson Park,Ware,1,,http://eyal.org.uk/,OUT 23/061,-0.0333125,51.8239375
West Yorkshire League,23-Apr,Apr,Princess Mary Athletic Stadium,Cleckheaton,1,,www.wakefield -harriers.co.uk/wytfl/wyl23index.htm,OUT 23/078,-1.7140939,53.7264346
St George's Day Open Graded Competition,23-Apr,Apr,Blackbridge Athletics Track,Gloucester,1,,https://www.gloucesterac.co.uk/,OUT 23/106,-2.235105,51.853862
Medway & Maidstone AC Summer Open Meeting,23-Apr,Apr,Medway Park,Gillingham,1,,www.entry4sports.co.uk,OUT 23/131,0.5410061101,51.3905889
Notts Mini League,23-Apr,Apr,Berry Hill Park Athletic Track,Mansfield,1,,,OUT 23/162,-1.1771875,53.1288125
RJT & NMAC Series Sheffield 2023,23-Apr,Apr,Shu City Athletics Stadium (Woodburn Road),Sheffield,1,,https://www.race-results.co.uk/results/2023/,OUT 23/190,-1.4324375,53.3894375
BMC Regional Meeting,23-Apr,Apr,Medway Park,Gillingham,1,,https://www.britishmilersclub.com/,OUT 23/196,0.5410061101,51.3905889
Devon Open 1,23-Apr,Apr,Exeter Arena,Exeter,1,,https://data.opentrack.run/en-gb/x/2023/GBR/devonopen23m1/,OUT 23/200,-3.491320974,50.73765245
Alder Valley League,23-Apr,Apr,Palmer Park Athletics Track,Reading,1,,,OUT 23/239,-0.9696512,51.456659
York Invitation,23-Apr,Apr,University of York,York,1,,,OUT 23/265,-1.031459294,53.9453903
Huntingdonshire AC Club Championships,23-Apr,Apr,"One Leisure Outdoor Centre, St. Ives",St. Ives,1,,,OUT 23/272,-0.092947,52.336512
Triangular League,23-Apr,Apr,Aldersley Leisure Village (Wolverhampton),Wolverhampton,1,,,OUT 23/282,-2.1491911,52.6065163
Birchfield Harriers Young Athletes Open Meeting,23-Apr,Apr,Alexander Stadium - Main Stadium,Birmingham,2,WA F,,OUT 23/284,-1.906396,52.530985
Cheshire League,23-Apr,Apr,Cleavley Athletics Track,Salford,1,,http://cheshireaa.com/results/TFL/cheshire_tf_league.aspx,OUT 23/293,-2.371778913,53.4874406
"Cheshire League - No hammer, discus, pole vault",23-Apr,Apr,Richmond Street Athletics Stadium,Ashton-under-Lyne,1,,http://cheshireaa.com/results/TFL/cheshire_tf_league.aspx,OUT 23/293,-2.1144375,53.4938125
Cheshire League - no hammer or discus,23-Apr,Apr,Ellesmere Port Sports Village,Ellesmere Port,1,,http://cheshireaa.com/results/TFL/cheshire_tf_league.aspx,OUT 23/293,-2.894311448,53.26567295
Oxford University AC Cuppers,23-Apr,Apr,Iffley Road Athletics Track (OU),Oxford,1,,,OUT 23/351,-1.2445625,51.7455625
Southern Counties VAC League - Hampshire Division,24-Apr,Apr,Mountbatten Centre,Portsmouth,1,,https://www.hampshirevetsleague.org.uk/,OUT 23/133,-1.082616998,50.82464535
Manx Harriers Track 10000m Run & 5000m/10000m Walk,24-Apr,Apr,National Sports Centre (IOM),Douglas,1,,,OUT 23/186,-4.504653,54.152616
Wirral AC Open Meeting (Mini Series) ,24-Apr,Apr,The Oval Stadium,Bebington,1,,https://www.race-results.co.uk/results/2023/,OUT 23/235,-3.0098125,53.3579375
Blackheath & Bromley Harriers AC Spring Open,24-Apr,Apr,Norman Park Athletic Track,Bromley,2,WA F,https://entry4sports.co.uk/#/showentries,OUT 23/263,0.0213125,51.3868125
Southern Counties VAC League - Western,24-Apr,Apr,Oxford Horspath Athletics Stadium,Horspath,1,,,OUT 23/316,-1.1871875,51.7374375
Southern Counties Veterans League - South London Division,24-Apr,Apr,Weir Archer Athletics Track (Kingsmeadow),Kingston,1,,,OUT 23/325,-0.2836903,51.4052927
Peterborough & Nene Valley AC Vault Night,25-Apr,Apr,Embankment Athletics Track,Peterborough,1,,https://meets.rosterathletics.com/public/competitions/details/about?id=13232,OUT 23/043,-0.233043,52.570904
Corby AC Open Meeting,25-Apr,Apr,Rockingham Triangle Sports Stadium (Corby),Corby,1,,https://entry4sports.co.uk/#/show-entry/414,OUT 23/135,-0.71468749,52.5070625
Exeter Evening Open Meeting,25-Apr,Apr,Exeter Arena,Exeter,1,,https://exeterharriers.org.uk/events/exeter-open-competitions/,OUT 23/342,-3.491320974,50.73765245
BMC Regional - Exeter,25-Apr,Apr,Exeter Arena,Exeter,1,,https://www.britishmilersclub.com/,OUT 23/344,-3.491320974,50.73765245
Waverley Summer Jumps,25-Apr,Apr,Woolmer Hill Recreation Ground,Haslemere,1,,,OUT 23/348,-0.74831249,51.0944375
Highgate Harriers Open Meeting,26-Apr,Apr,Parliament Hill Fields Track,Parliament Hill,1,,,OUT 23/077,-0.1556875,51.5570625
Oxon & Bucks Midweek Open Meeting,26-Apr,Apr,Oxford Horspath Athletics Stadium,Horspath,1,,https://www.rosterathletics.com/,OUT 23/114,-1.1871875,51.7374375
North East Grand Prix,26-Apr,Apr,Monkton Stadium,Jarrow,1,,https://necaa.weebly.com/,OUT 23/157,-1.497931582,54.9656323
Wirral AC Open Meeting (Mini Series) ,26-Apr,Apr,The Oval Stadium,Bebington,1,,https://www.race-results.co.uk/results/2023/,OUT 23/236,-3.0098125,53.3579375
Bury AC Track Mile & Open Meeting,26-Apr,Apr,Market Street Athletics Track,Bury,1,,https://www.race-results.co.uk/results/2023/,OUT 23/237,-2.323851,53.591353
Midland Veterans League - East,26-Apr,Apr,Paula Radcliffe Athletics Stadium,Loughborough,1,,https://mvtfl.wordpress.com/,OUT 23/319,-1.230372,52.769183
Derby Day - UEA ,26-Apr,Apr,Sportspark at UEA,Norwich,1,,,OUT 23/336,1.2410625,52.6238125
Natasha Lewis Open,26-Apr,Apr,University of Bath Athletics Track,Bath,1,,https://meets.rosterathletics.com/public/competitions/details/about?id=13568,OUT 23/343,-2.3221875,51.3778125
Shropshire Young Athletes League,27-Apr,Apr,Telford Athletics Stadium,Telford,1,,,OUT 23/310,-2.449812,52.7073978
Shropshire Young Athlete's League,27-Apr,Apr,Telford Athletics Stadium,Telford,1,,,OUT 23/353,-2.449812,52.7073978
Comeback #3 5000m (with FNUL) ,28-Apr,Apr,Millenium Arena Battersea Park,Battersea Park,2,WA F,https://data.opentrack.run/en-gb/x/2023/GBR/comeback3/,OUT 23/098,-0.146969,51.47698
Sussex Under 13 League East,28-Apr,Apr,Withdean Stadium,Brighton,1,,,OUT 23/306,-0.1593261361,50.85215175
Sussex Under 13 League West,28-Apr,Apr,"The Bridge Leisure Centre, Horsham",Horsham,1,,,OUT 23/307,-0.3600625,51.0650625
"scottishathletics 10,000m Championships",28-Apr,Apr,Crownpoint Sports Complex,Crownpoint,2,WA F,,OUT 23/324,-4.2218125,55.8536875
South London Athletics Network  April Time Open ,29-Apr,Apr,Woodcote High School,Coulsdon,1,,https://data.opentrack.run/en-gb/x/2023/GBR/slanapr/ ,OUT 23/054,-0.1422829051,51.33016
West Suffolk Steeplechase Festival,29-Apr,Apr,West Suffolk Athletics Arena,Bury St. Edmunds,1,,,OUT 23/080,0.6994769977,52.25094525
Somerset County Combined Events Championships,29-Apr,Apr,Bill Whistlecroft Stadium (Yeovil Athletics Arena),Yeovil,2,WA F,https://www.somersetschoolsathletics.org.uk/,OUT 23/113,-2.6318629,50.9420451
Doncaster Open Meeting,29-Apr,Apr,Keepmoat Stadium,Doncaster,1,,,OUT 23/189,-1.113771303,53.50977845
Track Mile Festival by Ealing Eagles X Savills,29-Apr,Apr,Perivale Park Athletic Track,Perivale,1,,https://www.eventrac.co.uk/e/track-mile-festival-by-ealing-eagles-x-savills-9422,OUT 23/259,-0.33712,51.532246
Gloucestershire County Championships,29-Apr,Apr,Blackbridge Athletics Track,Gloucester,1,,https://www.athletics4u.co.uk/track-and-field/,OUT 23/309,-2.235105,51.853862
Derbyshire Mini League,29-Apr,Apr,Moorways Athletics Stadium,Derby,1,,,OUT 23/329,-1.457212,52.891228
BUCS Outdoor Athletics Championships,29-Apr,Apr,Manchester Regional Athletics Arena,Sportcity,2,WA F,https://www.bucs.org.uk/events-page/athletics-outdoor-championships-2022-23.html ,OUT 23/346,-2.2039375,53.4838125
Kent Young Athletes League Division 1,29-Apr,Apr,Norman Park Athletic Track,Bromley,1,,,OUT 23/357,0.0213125,51.3868125
Kent Young Athletes League Division 2,29-Apr,Apr,Norman Park Athletic Track,Bromley,1,,,OUT 23/357,0.0213125,51.3868125
Boston Open Pentathlon,30-Apr,Apr,Princess Royal Sports Arena (DABSI),Boston,1,,,OUT 23/051,-0.069759,52.9771639
South West Athletics League,30-Apr,Apr,Exeter Arena,Exeter,1,,,OUT 23/055,-3.491320974,50.73765245
Somerset County Combined Events Championships,30-Apr,Apr,Bill Whistlecroft Stadium (Yeovil Athletics Arena),Yeovil,2,WA F,https://www.somersetschoolsathletics.org.uk/,OUT 23/113,-2.6318629,50.9420451
Oxfordshire League,30-Apr,Apr,Oxford Horspath Athletics Stadium,Horspath,1,,https://oxfordshireathletics.org.uk/track-and-field,OUT 23/117,-1.1871875,51.7374375
East Anglian League,30-Apr,Apr,Cambridge University Athletics Track,Cambridge,1,,http://cambsathletics.org.uk/east-anglian-tf-league/,OUT 23/124,0.098906,52.206767
East Anglian League,30-Apr,Apr,Sportspark at UEA,Norwich,1,,http://cambsathletics.org.uk/east-anglian-tf-league/,OUT 23/124,1.2410625,52.6238125
East Anglian League,30-Apr,Apr,West Suffolk Athletics Arena,Bury St. Edmunds,1,,http://cambsathletics.org.uk/east-anglian-tf-league/,OUT 23/124,0.6994769977,52.25094525
UK Youth Development League Upper - Midlands Premier N/E,30-Apr,Apr,Harvey Hadden Athletic Stadium,Nottingham,1,,https://www.ukydl.org.uk/,OUT 23/129,-1.216395,52.968063
UK Youth Development League Upper - Midlands Premier South/West,30-Apr,Apr,Yate Outdoor Sports Complex,Yate,1,,https://www.ukydl.org.uk/,OUT 23/129,-2.4243125,51.55581249
UK Youth Development League Upper - Midlands South/West A,30-Apr,Apr,Yate Outdoor Sports Complex,Yate,1,,https://www.ukydl.org.uk/,OUT 23/129,-2.4243125,51.55581249
UK Youth Development League Upper - Midlands North/East 1A,30-Apr,Apr,Northwood Stadium,Stoke,1,,https://www.ukydl.org.uk/,OUT 23/129,-2.159532933,53.02656235
UK Youth Development League Upper - Midlands North/East 1B,30-Apr,Apr,Telford Athletics Stadium,Telford,1,,https://www.ukydl.org.uk/,OUT 23/129,-2.449812,52.7073978
UK Youth Development League Upper - Midlands North/East 1C,30-Apr,Apr,Telford Athletics Stadium,Telford,1,,https://www.ukydl.org.uk/,OUT 23/129,-2.449812,52.7073978
UK Youth Development League Upper - Northern Premier East,30-Apr,Apr,Costello Stadium,Hull,1,,https://www.ukydl.org.uk/,OUT 23/129,-0.4107359,53.7372742
UK Youth Development League Upper - Northern Premier West,30-Apr,Apr,Wavertree Athletic Track,Liverpool,1,,https://www.ukydl.org.uk/,OUT 23/129,-2.9239375,53.3958125
UK Youth Development League Upper - Northern West 1 - no hammer/discus,30-Apr,Apr,Ellesmere Port Sports Village,Ellesmere Port,1,,https://www.ukydl.org.uk/,OUT 23/129,-2.894311448,53.26567295
UK Youth Development League Upper - Northern West 2,30-Apr,Apr,Leigh Sports Village,Leigh,1,,https://www.ukydl.org.uk/,OUT 23/129,-2.5305682,53.4883788
UK Youth Development League Upper - Southern Premier,30-Apr,Apr,Dacorum Athletics Track (Jarman Park),Hemel Hempstead,1,,https://www.ukydl.org.uk/,OUT 23/129,-0.457736,51.746359
UK Youth Development League Upper - Southern 1A,30-Apr,Apr,Kings Park Athletic Track,Bournemouth,1,,https://www.ukydl.org.uk/,OUT 23/129,-1.8339375,50.7334375
UK Youth Development League Upper - Southern 2A,30-Apr,Apr,Ridlins Wood Athletics Track,Stevenage,1,,https://www.ukydl.org.uk/,OUT 23/129,-0.2027155,51.9016663
UK Youth Development League Upper - Southern 1B,30-Apr,Apr,Tonbridge School Athletics Track,Tonbridge,1,,https://www.ukydl.org.uk/,OUT 23/129,0.275167,51.200872
UK Youth Development League Upper - Southern 2B,30-Apr,Apr,Lewes Community Athletics Track,Lewes,1,,https://www.ukydl.org.uk/,OUT 23/129,0.018633,50.868186
Yorkshire & District League 1,30-Apr,Apr,Princess Mary Athletic Stadium,Cleckheaton,1,,,OUT 23/146,-1.7140939,53.7264346
Yorkshire & District League Division 2,30-Apr,Apr,Princess Mary Athletic Stadium,Cleckheaton,1,,,OUT 23/146,-1.7140939,53.7264346
Charles Stuart Open Graded Meeting,30-Apr,Apr,Middlesbrough Sports Village,Middlesbrough,1,,https://necaa.weebly.com/,OUT 23/149,-1.210556246,54.54434965
scottishathletics Throws & Jumps Grand Prix 1,30-Apr,Apr,Queens Park Athletics Stadium,Inverness,2,WA F,,OUT 23/154,-4.225739,57.4790124
Aztec Track & Field Series,30-Apr,Apr,Footes Lane (Garenne Stand),St. Peter Port,1,,,OUT 23/230,-2.5639734,49.4645552
Southampton AC Invitation Jumps Event,30-Apr,Apr,Southampton Sports Centre (Bassett Outdoor),Southampton,1,,https://www.southamptonathleticclub.org.uk/wordpress/,OUT 23/298,-1.419689,50.937383
Warrington AC Junior Open Meeting,30-Apr,Apr,Victoria Park Arena,Warrington,1,,https://www.trybooking.co.uk/CENA,OUT 23/315,-2.573880055,53.38632335
BUCS Outdoor Athletics Championships,30-Apr,Apr,Manchester Regional Athletics Arena,Sportcity,2,WA F,https://www.bucs.org.uk/events-page/athletics-outdoor-championships-2022-23.html ,OUT 23/346,-2.2039375,53.4838125
Trafford Medal Meetings,1-May,May,Longford Park Athletics Stadium,Stretford,1,,https://www.traffordac.co.uk/php/index.php?script=home.php,OUT 23/022,-2.28935,53.44636
Hampshire Multi Events & Quadkids,1-May,May,Mountbatten Centre,Portsmouth,1,,https://hampshireathletics.org.uk/events/tfc.html,OUT 23/274,-1.082616998,50.82464535
Brewer Memorial Games,1-May,May,Blackbridge Athletics Track,Gloucester,1,,https://www.race-results.co.uk/results/2023/,OUT 23/275,-2.235105,51.853862
Hertfordshire & Bedfordshire County Championships,1-May,May,Ridlins Wood Athletics Track,Stevenage,1,,http://hertscaaa.org.uk/,OUT 23/308,-0.2027155,51.9016663
BUCS Outdoor Athletics Championships,1-May,May,Manchester Regional Athletics Arena,Sportcity,2,WA F,https://www.bucs.org.uk/events-page/athletics-outdoor-championships-2022-23.html ,OUT 23/346,-2.2039375,53.4838125
Derby Athletics Development Association Midweek Opens,2-May,May,Moorways Athletics Stadium,Derby,1,,,OUT 23/109,-1.457212,52.891228
North Yorkshire & South Durham Series,2-May,May,Middlesbrough Sports Village,Middlesbrough,1,,http://www.nysd.org.uk/category/track-field/,OUT 23/213,-1.210556246,54.54434965
Tonbridge Athletic Club Evening Open Meeting,2-May,May,Tonbridge School Athletics Track,Tonbridge,1,,https://data.opentrack.run/en-gb/x/2023/GBR/tacdev1/,OUT 23/317,0.275167,51.200872
Watford Harriers Open Graded Meetings,3-May,May,Woodside Stadium,Watford,2,WA F,,OUT 23/092,-0.3945440682,51.69587595
Watford Open Field Events,3-May,May,Woodside Stadium,Watford,1,,,OUT 23/100,-0.3945440682,51.69587595
Brighton BMC Regional Race,3-May,May,Withdean Stadium,Brighton,1,,https://www.britishmilersclub.com/,OUT 23/287,-0.1593261361,50.85215175
RJT & NMAC Series Sheffield 2023,3-May,May,Shu City Athletics Stadium (Woodburn Road),Sheffield,1,,https://www.race-results.co.uk/results/2023/67,OUT 23/295,-1.4324375,53.3894375
Achilles Schools Relays,4-May,May,Iffley Road Athletics Track (OU),Oxford,1,,,OUT 23/217,-1.2445625,51.7455625
Tommy Clay Development Meeting,5-May,May,Princess Royal Sports Arena (DABSI),Boston,1,,,OUT 23/052,-0.069759,52.9771639
Coronation Open Meeting,5-May,May,Down Grange Athletic Track,Basingstoke,1,,https://data.opentrack.run/en-gb/x/2023/GBR/basingstoke-may-open-event/,OUT 23/260,-1.1265625,51.2483125
Southern Counties Veterans AC Kent Division 1,5-May,May,Sutcliffe Park Athletics Track,Eltham,1,,http://www.scvac.org.uk/track.htm,OUT 23/286,0.0541253,51.4505687
Southern Counties Veterans AC Kent Division 2,5-May,May,Sutcliffe Park Athletics Track,Eltham,1,,http://www.scvac.org.uk/track.htm,OUT 23/286,0.0541253,51.4505687
Berkshire Schools Combined Events Championships,5-May,May,Palmer Park Athletic Track,Reading,1,,,OUT 23/358,-0.9696512,51.456659
Peterborough & Nene Valley AC Throws Sunday ,7-May,May,Embankment Athletics Track,Peterborough,1,,https://meets.rosterathletics.com/public/competitions/details/about?id=13233,OUT 23/041,-0.233043,52.570904
Huntingdonshire AC Club Championships,7-May,May,"One Leisure Outdoor Centre, St. Ives",St. Ives,1,,,OUT 23/272,-0.092947,52.336512
Middlesex Young Athletes League,7-May,May,Perivale Park Athletic Track,Perivale,1,,,OUT 23/277,-0.33712,51.532246
Be Fit Today Track Academy Outdoor Series 2,7-May,May,Lee Valley Athletics Centre - Outdoor,Lee Valley,2,WA F,,OUT 23/280,-0.038032,51.629996
UK Youth Development League Lower - Midland Premier North/East,7-May,May,Stantonbury Stadium,Milton Keynes,1,,https://www.ukydl.org.uk/,OUT 23/311,-0.769329,52.058685
UK Youth Development League Lower - Midland Premier South/West,7-May,May,Carmarthen Leisure Centre Track,Carmarthen,1,,https://www.ukydl.org.uk/,OUT 23/311,-4.320243,51.843365
UK Youth Development League Lower - Midland North/East A,7-May,May,Moorways Athletics Stadium,Derby,1,,https://www.ukydl.org.uk/,OUT 23/311,-1.457212,52.891228
UK Youth Development League Lower - Midland North/East B,7-May,May,Tamworth Athletics Track,Tamworth,1,,https://www.ukydl.org.uk/,OUT 23/311,-1.6671875,52.6188125
UK Youth Development League Lower - Midland North/East C,7-May,May,Tamworth Athletics Track,Tamworth,1,,https://www.ukydl.org.uk/,OUT 23/311,-1.6671875,52.6188125
UK Youth Development League Lower - Midland North/East D,7-May,May,Nunnery Wood Sports Complex,Worcester,1,,https://www.ukydl.org.uk/,OUT 23/311,-2.187315871,52.18499495
UK Youth Development League Lower - Midland North/East E,7-May,May,Nunnery Wood Sports Complex,Worcester,1,,https://www.ukydl.org.uk/,OUT 23/311,-2.187315871,52.18499495
UK Youth Development League Lower - Midland South/West A,7-May,May,Blackbridge Athletics Track,Gloucester,1,,https://www.ukydl.org.uk/,OUT 23/311,-2.235105,51.853862
UK Youth Development League Lower - Midland South/West B,7-May,May,Blackbridge Athletics Track,Gloucester,1,,https://www.ukydl.org.uk/,OUT 23/311,-2.235105,51.853862
UK Youth Development League Lower - Norther Premier East,7-May,May,University of York,York,1,,https://www.ukydl.org.uk/,OUT 23/311,-1.031459294,53.9453903
UK Youth Development League Lower - Norther Premier West,7-May,May,Longford Park Athletics Stadium,Stretford,1,,https://www.ukydl.org.uk/,OUT 23/311,-2.28935,53.44636
UK Youth Development League Lower - Northern East 1,7-May,May,Shu City Athletics Stadium (Woodbourn Road),Sheffield,1,,https://www.ukydl.org.uk/,OUT 23/311,-1.4324375,53.3894375
UK Youth Development League Lower - Northern West 1,7-May,May,Ellesmere Port Sports Village,Ellesmere Port,1,,https://www.ukydl.org.uk/,OUT 23/311,-2.894311448,53.26567295
UK Youth Development League Lower - Northern West 2,7-May,May,Macclesfield Athletics Track,Macclesfield,1,,https://www.ukydl.org.uk/,OUT 23/311,-2.165140807,53.2681353
UK Youth Development League Lower - Northern 3N - no hammer or discus,7-May,May,Victoria Park Arena,Warrington,1,,https://www.ukydl.org.uk/,OUT 23/311,-2.573880055,53.38632335
UK Youth Development League Lower - Northern 3N - no hammer or discus,7-May,May,Victoria Park Arena,Warrington,1,,https://www.ukydl.org.uk/,OUT 23/311,-2.573880055,53.38632335
UK Youth Development League Lower - Southern Premier,7-May,May,Norman Park Athletic Track,Bromley,1,,https://www.ukydl.org.uk/,OUT 23/311,0.0213125,51.3868125
UK Youth Development League Lower - Southern 1A,7-May,May,University of Winchester,Winchester,1,,https://www.ukydl.org.uk/,OUT 23/311,-1.3038125,51.05431249
UK Youth Development League Lower - Southern 2A,7-May,May,Woking Sportsbox (Hoe Valley),Woking,1,,https://www.ukydl.org.uk/,OUT 23/311,-0.5741875,51.29981249
UK Youth Development League Lower - Southern 3A,7-May,May,Woking Sportsbox (Hoe Valley),Woking,1,,https://www.ukydl.org.uk/,OUT 23/311,-0.5741875,51.29981249
UK Youth Development League Lower - Southern 1B,7-May,May,Bedford International Athletics Stadium,Bedford,1,,https://www.ukydl.org.uk/,OUT 23/311,-0.4418125,52.1336875
UK Youth Development League Lower - Southern 2B - no hammer or discus,7-May,May,Central Park Athletics Arena,Dartford,1,,https://www.ukydl.org.uk/,OUT 23/311,0.220864,51.441631
UK Youth Development League Lower - Scottish Division 1,7-May,May,Grangemouth Sports Stadium,Grangemouth,1,,https://www.ukydl.org.uk/,OUT 23/311,-3.7081875,56.0053125
UK Youth Development League Lower - Scottish Division 2,7-May,May,Grangemouth Sports Stadium,Grangemouth,1,,https://www.ukydl.org.uk/,OUT 23/311,-3.7081875,56.0053125
UK Youth Development League Lower - Scottish North East,7-May,May,Aberdeen Sports Village - Outdoor,Aberdeen,1,,https://www.ukydl.org.uk/,OUT 23/311,-2.093606,57.162666
Eastern Masters League,9-May,May,Embankment Athletics Track,Peterborough,1,,https://emac.org.uk/2023-tf-league/,OUT 23/214,-0.233043,52.570904
West Yorkshire League,10-May,May,Thornes Park Athletics Stadium,Wakefield,1,,www.wakefield -harriers.co.uk/wytfl/wyl23index.htm,OUT 23/078,-1.51464,53.67606
Eastern Masters League,10-May,May,Stantonbury Stadium,Milton Keynes,1,,https://emac.org.uk/2023-tf-league/,OUT 23/214,-0.769329,52.058685
Eastern Masters League,10-May,May,Southend Leisure & Tennis Centre Athletics Track,Southend,1,,https://emac.org.uk/2023-tf-league/,OUT 23/214,0.73458859,51.5546036
Isle of Man League,10-May,May,National Sports Centre (IOM),Douglas,1,,,OUT 23/224,-4.504653,54.152616
University of Birmingham Track & Field Series,10-May,May,University of Birmingham,Birmingham (Un),2,,,OUT 23/227,-1.93012,52.45082
British Milers Regional Meeting,10-May,May,Linford Christie Stadium,Wormwood Scrubs,1,,https://www.britishmilersclub.com/,OUT 23/256,-0.235065,51.519692
BMC Gold Standard Races,10-May,May,University of Birmingham,Birmingham (U),2,WA F,https://www.britishmilersclub.com/,OUT 23/257,-1.93012,52.45082
Thames Valley Harriers Open Meeting,10-May,May,Linford Christie Stadium,Wormwood Scrubs,1,,https://entry4sports.co.uk/#/,OUT 23/327,-0.235065,51.519692
Midland Veterans League - South,10-May,May,Nunnery Wood Sports Complex,Worcester,1,,https://mvtfl.wordpress.com/,OUT 23/330,-2.187315871,52.18499495
Natasha Lewis Open,10-May,May,University of Bath Athletics Track,Bath,1,,https://meets.rosterathletics.com/public/competitions/details/about?id=13568,OUT 23/343,-2.3221875,51.3778125
East Midlands Disability Athletics Championships,11-May,May,Saffron Lane Stadium,Leicester,1,,,OUT 23/242,-1.134269109,52.6137
Scottish North District Championships,12-May,May,Queens Park Athletics Stadium,Inverness,2,WA F,https://scottishathletics.sportserve.net/pages/event/athletics/athleticsfixturelist.aspx?pid=10000,OUT 23/158,-4.225739,57.4790124
Scottish National Outdoor Open,12-May,May,Queens Park Athletics Stadium,Inverness,2,WA F,https://scottishathletics.sportserve.net/pages/event/athletics/athleticsfixturelist.aspx?pid=10000,OUT 23/165,-4.225739,57.4790124
Wiltshire County Championships ,12-May,May,County Ground Track - Swindon,Swindon,1,,,OUT 23/222,-1.77101507,51.56446595
Belfast Irish Milers meet in Association with Tripadvisor,13-May,May,Mary Peters Stadium,Belfast,2,WA D,https://www.irishmilersclub.org/,OUT 23/010,-5.967179,54.548531
Greater Manchester AA County Championships,13-May,May,Leigh Sports Village,Leigh,2,WA F,https://www.race-results.co.uk/results/2023/,OUT 23/021,-2.5305682,53.4883788
Cambridgeshire County Championships,13-May,May,Embankment Athletics Track,Peterborough,1,, https://data.opentrack.run/en-gb/x/2023/GBR/cambstf23/,OUT 23/074,-0.233043,52.570904
Somerset County Championships,13-May,May,Bill Whistlecroft Stadium (Yeovil Athletics Arena),Yeovil,1,,https://www.somerset-athletics.co.uk/,OUT 23/122,-2.6318629,50.9420451
Warwickshire County Championships,13-May,May,The Pingles Stadium,Nuneaton,2,,,OUT 23/127,-1.464162493,52.515688
North East County Championships,13-May,May,Middlesbrough Sports Village,Middlesbrough,2,WA F,https://necaa.weebly.com/,OUT 23/145,-1.210556246,54.54434965
Cheshire County Championships,13-May,May,Ellesmere Port Sports Village,Ellesmere Port,1,,http://www.cheshireaa.com,OUT 23/150,-2.894311448,53.26567295
Scottish North District Championships,13-May,May,Queens Park Athletics Stadium,Inverness,2,WA F,https://scottishathletics.sportserve.net/pages/event/athletics/athleticsfixturelist.aspx?pid=10000,OUT 23/158,-4.225739,57.4790124
Scottish East District Championships,13-May,May,Grangemouth Sports Stadium,Grangemouth,2,WA F,https://scottishathletics.sportserve.net/pages/event/athletics/athleticsfixturelist.aspx?pid=10000,OUT 23/159,-3.7081875,56.0053125
Scottish National Outdoor Open,13-May,May,Queens Park Athletics Stadium,Inverness,2,WA F,https://scottishathletics.sportserve.net/pages/event/athletics/athleticsfixturelist.aspx?pid=10000,OUT 23/165,-4.225739,57.4790124
Scottish National Outdoor Open,13-May,May,Grangemouth Sports Stadium,Grangemouth,2,WA F,https://scottishathletics.sportserve.net/pages/event/athletics/athleticsfixturelist.aspx?pid=10000,OUT 23/165,-3.7081875,56.0053125
Scottish National Outdoor Open,13-May,May,Ayrshire Athletics Arena,Kilmarnock,2,WA F,https://scottishathletics.sportserve.net/pages/event/athletics/athleticsfixturelist.aspx?pid=10000,OUT 23/165,-4.480037,55.599577
Scottish West District Championships,13-May,May,Ayrshire Athletics Arena,Kilmarnock,2,WA F,https://scottishathletics.sportserve.net/pages/event/athletics/athleticsfixturelist.aspx?pid=10000,OUT 23/166,-4.480037,55.599577
Humber & Lincolnshire County Championships - day 1,13-May,May,Costello Stadium,Hull,1,,https://meets.rosterathletics.com/public/competitions/details/about?id=13672,OUT 23/169,-0.4107359,53.7372742
Berkshire Athletics County Championships,13-May,May,Palmer Park Athletic Track,Reading,1,,,OUT 23/203,-0.9696512,51.456659
Avon County Championships,13-May,May,Yate Outdoor Sports Complex,Yate,1,,  https://www.entrycentral.com/festival/3551,OUT 23/221,-2.4243125,51.55581249
Wiltshire County Championships ,13-May,May,County Ground Track - Swindon,Swindon,1,,,OUT 23/222,-1.77101507,51.56446595
Nottinghamshire & Derbyshire County Championships,13-May,May,Harvey Hadden Athletic Stadium,Nottingham,1,,,OUT 23/243,-1.216395,52.968063
Yorkshire County Championships,13-May,May,Dorothy Hyman Sports Centre,Cudworth,2,WA F,https://www.race-results.co.uk/results/2023/,OUT 23/347,-1.411029309,53.57425995
Norfolk County Championships ,13-May,May,Sportspark at UEA,Norwich,1,,,OUT 23/248,1.2410625,52.6238125
Northamptonshire & Leicestershire & Rutland County Championships ,13-May,May,Rockingham Triangle Sports Stadium (Corby),Corby,1,,https://meets.rosterathletics.com/public/competitions/details/about?id=13662,OUT 23/254,-0.71468749,52.5070625
Kent County Championships,13-May,May,Norman Park Athletic Track,Bromley,2,WA F,,OUT 23/267,0.0213125,51.3868125
Hertfordshire & Bedfordshire County Championships,13-May,May,Woodside Stadium,Watford,1,,http://hertscaaa.org.uk/,OUT 23/271,-0.3945440682,51.69587595
Essex County Championships,13-May,May,Blackshots Athletic Stadium (Thurrock),Grays,2,WA,https://meets.rosterathletics.com/public/competitions/details/participants?id=13894,OUT 23/289,0.3470567,51.4935653
Buckinghamshire & Oxfordshire County Championships,13-May,May,Oxford Horspath Athletics Stadium,Horspath,2,,https://meets.rosterathletics.com/public/competitions/details/about?id=14214,OUT 23/297,-1.1871875,51.7374375
Worcestershire County Championships,13-May,May,Alan Moreton Track (Stourport),Stourport,1,,,OUT 23/304,-2.280539,52.34658
Hampshire County Championships,13-May,May,Mountbatten Centre,Portsmouth,2,WA,,OUT 23/332,-1.082616998,50.82464535
Surrey County Championships,13-May,May,Weir Archer Athletics Track (Kingsmeadow),Kingston,2,WA,https://data.opentrack.run/en-gb/x/2023/GBR/tfsurrey/,OUT 23/334,-0.2836903,51.4052927
Cornwall County Championships,13-May,May,Royal Duchy Athletics Track,Carn Brea,1,,https://www.cornwallac.org.uk/content/FixturesDetail.asp?ID=1354,OUT 23/365,,
Greater Manchester AA County Championships,14-May,May,Leigh Sports Village,Leigh,2,WA F,https://www.race-results.co.uk/results/2023/,OUT 23/021,-2.5305682,53.4883788
Dorset County Championships,14-May,May,Kings Park Athletic Track,Bournemouth,1,,,OUT 23/058,-1.8339375,50.7334375
Somerset County Championships,14-May,May,Bill Whistlecroft Stadium (Yeovil Athletics Arena),Yeovil,1,,https://www.somerset-athletics.co.uk/,OUT 23/122,-2.6318629,50.9420451
North East County Championships,14-May,May,Middlesbrough Sports Village,Middlesbrough,2,WA F,https://necaa.weebly.com/,OUT 23/145,-1.210556246,54.54434965
Cheshire County Championships,14-May,May,Ellesmere Port Sports Village,Ellesmere Port,1,,http://www.cheshireaa.com,OUT 23/150,-2.894311448,53.26567295
Scottish East District Championships,14-May,May,Grangemouth Sports Stadium,Grangemouth,2,WA F,https://scottishathletics.sportserve.net/pages/event/athletics/athleticsfixturelist.aspx?pid=10000,OUT 23/159,-3.7081875,56.0053125
Scottish National Outdoor Open,14-May,May,Grangemouth Sports Stadium,Grangemouth,2,WA F,https://scottishathletics.sportserve.net/pages/event/athletics/athleticsfixturelist.aspx?pid=10000,OUT 23/165,-3.7081875,56.0053125
Scottish National Outdoor Open,14-May,May,Ayrshire Athletics Arena,Kilmarnock,2,WA F,https://scottishathletics.sportserve.net/pages/event/athletics/athleticsfixturelist.aspx?pid=10000,OUT 23/165,-4.480037,55.599577
Scottish West District Championships,14-May,May,Ayrshire Athletics Arena,Kilmarnock,2,WA F,https://scottishathletics.sportserve.net/pages/event/athletics/athleticsfixturelist.aspx?pid=10000,OUT 23/166,-4.480037,55.599577
Humber and Lincolnshire County Championships - day 2,14-May,May,South Kesteven Sports Stadium (Grantham),Grantham,1,,https://meets.rosterathletics.com/public/competitions/details/about?id=13672,OUT 23/177,-0.6668353498,52.9057479
Berkshire Athletics County Championships,14-May,May,Palmer Park Athletic Track,Reading,1,,,OUT 23/203,-0.9696512,51.456659
Wiltshire County Championships ,14-May,May,County Ground Track - Swindon,Swindon,1,,,OUT 23/222,-1.77101507,51.56446595
Nottinghamshire & Derbyshire County Championships,14-May,May,Harvey Hadden Athletic Stadium,Nottingham,1,,,OUT 23/243,-1.216395,52.968063
Yorkshire County Championships,14-May,May,Dorothy Hyman Sports Centre,Cudworth,2,WA F,https://www.race-results.co.uk/results/2023/,OUT 23/347,-1.411029309,53.57425995
Norfolk County Championships ,14-May,May,Sportspark at UEA,Norwich,1,,,OUT 23/248,1.2410625,52.6238125
Northamptonshire & Leicestershire & Rutland County Championships ,14-May,May,Rockingham Triangle Sports Stadium (Corby),Corby,1,,https://meets.rosterathletics.com/public/competitions/details/about?id=13662,OUT 23/254,-0.71468749,52.5070625
Kent County Championships,14-May,May,Norman Park Athletic Track,Bromley,2,WA F,,OUT 23/267,0.0213125,51.3868125
Devon County Championships,14-May,May,Exeter Arena,Exeter,1,,https://data.opentrack.run/en-gb/x/2023/GBR/devoncountychamps/,OUT 23/270,-3.491320974,50.73765245
Hertfordshire & Bedfordshire County Championships,14-May,May,Woodside Stadium,Watford,1,,http://hertscaaa.org.uk/,OUT 23/271,-0.3945440682,51.69587595
Essex County Championships,14-May,May,Blackshots Athletic Stadium (Thurrock),Grays,2,WA,https://meets.rosterathletics.com/public/competitions/details/participants?id=13894,OUT 23/289,0.3470567,51.4935653
Buckinghamshire & Oxfordshire County Championships,14-May,May,Oxford Horspath Athletics Stadium,Horspath,2,,https://meets.rosterathletics.com/public/competitions/details/about?id=14214,OUT 23/297,-1.1871875,51.7374375
Merseyside County Championships,14-May,May,Wavertree Athletic Track,Liverpool,1,,https://www.race-results.co.uk/onlineentries/user/login.php?raceid=4852,OUT 23/299,-2.9239375,53.3958125
Gloucestershire County Championships,14-May,May,Blackbridge Athletics Track,Gloucester,1,,https://www.athletics4u.co.uk/track-and-field/,OUT 23/309,-2.235105,51.853862
Hampshire County Championships,14-May,May,Mountbatten Centre,Portsmouth,2,WA,,OUT 23/332,-1.082616998,50.82464535
Surrey County Championships,14-May,May,Weir Archer Athletics Track (Kingsmeadow),Kingston,2,WA,https://data.opentrack.run/en-gb/x/2023/GBR/tfsurrey/,OUT 23/334,-0.2836903,51.4052927
Southern Counties VAC League - Mid-London Division,15-May,May,Millenium Arena Battersea Park,Battersea Park,1,,,OUT 23/195,-0.146969,51.47698
North East Masters AA League,15-May,May,Monkton Stadium,Jarrow,1,,https://www.nemaa.co.uk/track-and-field.html,OUT 23/205,-1.497931582,54.9656323
Trafford Grand Prix,16-May,May,Longford Park Athletics Stadium,Stretford,2,WA F,https://www.traffordac.co.uk/php/index.php?script=home.php,OUT 23/065,-2.28935,53.44636
BMC Gold Standard  - Trafford ,16-May,May,Longford Park Athletics Stadium,Stretford,2,WA F,https://www.britishmilersclub.com/,OUT 23/125,-2.28935,53.44636
Watford Harriers Open Graded Meetings,17-May,May,Woodside Stadium,Watford,2,WA F,,OUT 23/092,-0.3945440682,51.69587595
Watford Open Field Events,17-May,May,Woodside Stadium,Watford,1,,,OUT 23/100,-0.3945440682,51.69587595
BMC Watford Gold Standard,17-May,May,Woodside Stadium,Watford,2,WA F,https://www.britishmilersclub.com/,OUT 23/138,-0.3945440682,51.69587595
BMC Regional Race,17-May,May,Paula Radcliffe Athletics Stadium,Loughborough,1,,https://www.britishmilersclub.com/,OUT 23/320,-1.230372,52.769183
Rosenheim League - West,17-May,May,Weir Archer Athletics Track (Kingsmeadow),Kingston,1,,,OUT 23/350,-0.2836903,51.4052927
Rosenheim League - East,17-May,May,Millenium Arena Battersea Park,Battersea Park,1,,,OUT 23/350,-0.146969,51.47698
Ashford AC Jumps & Throws Open Meeting,18-May,May,Julie Rose Stadium,Ashford,1,,,OUT 23/261,0.899562,51.1552996
Southern Athletics League Divisions 3 Kent,19-May,May,Central Park Athletics Arena,Dartford,1,,https://www.southernathletics.org.uk/,OUT 23/226,0.220864,51.441631
Southern Athletics League Divisions 3 South,19-May,May,Central Park Athletics Arena,Dartford,1,,https://www.southernathletics.org.uk/,OUT 23/226,0.220864,51.441631
Highgate Harriers Night of the 10000m PB's inc. British Championships & World Championships Trials,20-May,May,Parliament Hill Fields Track,Parliament Hill,2,WA B,,OUT 23/015,-0.1556875,51.5570625
Northern Track & Field League East 1S,20-May,May,Princess Royal Sports Arena (DABSI),Boston,1,,https://www.northernathletics.co.uk/track-field-league/,OUT 23/028,-0.069759,52.9771639
Northern Track & Field League East 1N,20-May,May,John Charles Centre for Sport (South Leeds Stadium),Leeds (JC),1,,https://www.northernathletics.co.uk/track-field-league/,OUT 23/029,-1.542254,53.764693
Northern Track & Field League West Premier,20-May,May,Ellesmere Port Sports Village,Ellesmere Port,1,,https://www.northernathletics.co.uk/track-field-league/,OUT 23/030,-2.894311448,53.26567295
Northern Track & Field League West 2,20-May,May,Witton Park Track,Blackburn,1,,https://www.northernathletics.co.uk/track-field-league/,OUT 23/031,-2.5148125,53.7391875
Northern Track & Field League North East 1,20-May,May,Shildon - Stadium 2000,Shildon,1,,https://www.northernathletics.co.uk/track-field-league/,OUT 23/032,-1.648251,54.632837
Northern Track & Field League East Premier,20-May,May,University of York,York,1,,https://www.northernathletics.co.uk/track-field-league/,OUT 23/044,-1.031459294,53.9453903
Southern Athletics League Division 3 West,20-May,May,Ashdown Leisure Centre,Poole,1,,https://www.southernathletics.org.uk/,OUT 23/060,-1.9664201,50.7487411
Southern Athletics League Division 2 North & East - NO HAMMER/DISCUS,20-May,May,Finsbury Park,Finsbury Park,1,,https://www.southernathletics.org.uk/,OUT 23/070,-0.1010625,51.5715625
Southern Athletics League Division 2 North & East,20-May,May,Hornchurch Stadium,Hornchurch,1,,https://www.southernathletics.org.uk/,OUT 23/070,0.2383170571,51.5565905
Southern Athletics League Division 2 North & East,20-May,May,"One Leisure Centre, St Ives",St. Ives,1,,https://www.southernathletics.org.uk/,OUT 23/070,-0.092947,52.336512
Northern Track & Field League West 1S - NO HIGH JUMP/HAMMER/DISCUS/WEIGHT/CLUB THROW,20-May,May,Macclesfield Athletics Track,Macclesfield,1,,https://www.northernathletics.co.uk/track-field-league/,OUT 23/075,-2.165140807,53.2681353
Northern Track & Field League West 1N - NO POLE VAULT/HAMMER/DISCUS,20-May,May,Richmond Street Athletics Stadium,Ashton-under-Lyne,1,,https://www.northernathletics.co.uk/track-field-league/,OUT 23/084,-2.1144375,53.4938125
BWAA Grand Prix Series,20-May,May,Stoke Mandeville Stadium,Stoke Mandeville,2,,,OUT 23/089,-0.784342,51.787885
Northern Track & Field League North East Premier,20-May,May,Morpeth Athletics Track,Morpeth,1,,https://www.northernathletics.co.uk/track-field-league/,OUT 23/107,-1.6907444,55.1675437
Northern Track & Field League East 2,20-May,May,Princess Mary Athletic Stadium,Cleckheaton,1,,https://www.northernathletics.co.uk/track-field-league/,OUT 23/120,-1.7140939,53.7264346
Midland Counties League Division 1,20-May,May,Blackbridge Athletics Track,Gloucester,1,,https://midland-athletics.co.uk/disciplines/league/,OUT 23/171,-2.235105,51.853862
Midland Counties League Division 4SE,20-May,May,The Pingles Stadium,Nuneaton,1,,https://midland-athletics.co.uk/disciplines/league/,OUT 23/172,-1.464162493,52.515688
Midland Counties League Division 4NE,20-May,May,Shobnall Athletics Track,Burton,1,,https://midland-athletics.co.uk/disciplines/league/,OUT 23/234,-0.56667,53.26667
Midland Counties League Division 2,20-May,May,Yate Outdoor Sports Complex,Yate,1,,https://midland-athletics.co.uk/disciplines/league/,OUT 23/285,-2.4243125,51.55581249
Southern Athletics League Division 1,20-May,May,Down Grange Athletic Track,Basingstoke,1,,https://www.southernathletics.org.uk/,OUT 23/341,-1.1265625,51.2483125
Southern Athletics League Division 1,20-May,May,Bracknell Sports & Leisure Centre Athletics Stadium,Bracknell,1,,https://www.southernathletics.org.uk/,OUT 23/341,-0.7449925,51.4143513
Southern Athletics League Division 1,20-May,May,Colchester Station Athletics Track,Colchester,1,,https://www.southernathletics.org.uk/,OUT 23/341,0.89618749,51.8816875
Southern Athletics League Division 3 North,20-May,May,Braintree Leisure Centre,Braintree,1,,https://www.southernathletics.org.uk/,OUT 23/349,0.554597,51.882406
Southern Athletics League Division 3 North,20-May,May,Stantonbury Stadium,Milton Keynes,1,,https://www.southernathletics.org.uk/,OUT 23/349,-0.769329,52.058685
Southern Athletics League Division 3 North,20-May,May,Woodside Stadium,Watford,1,,https://www.southernathletics.org.uk/,OUT 23/349,-0.3945440682,51.69587595
Wessex Young Athletes' League,21-May,May,County Ground Track - Swindon,Swindon,1,,https://www.wessexleaguetandf.co.uk/,OUT 23/038,-1.77101507,51.56446595
North East Youth Development League - Division 1,21-May,May,Churchill,Whitley Bay,1,,http://www.neydl.website,OUT 23/048,-1.4620499,55.045704
North East Youth Development League - Division 2,21-May,May,Shildon - Stadium 2000,Shildon,1,,http://www.neydl.website,OUT 23/048,-1.648251,54.632837
Eastern Young Athletes League,21-May,May,Stonex Stadium,Hendon,1,,http://eyal.org.uk/,OUT 23/061,-0.2236569504,51.60371995
Eastern Young Athletes League,21-May,May,Gloucester Park Athletics Stadium (Basildon Sports Village),Basildon,1,,http://eyal.org.uk/,OUT 23/061,0.4757363,51.5754602
Eastern Young Athletes League,21-May,May,Westminster Lodge Athletics Track,St. Albans,1,,http://eyal.org.uk/,OUT 23/061,-0.344495,51.745663
Eastern Young Athletes League,21-May,May,Ridlins Wood Athletics Track,Stevenage,1,,http://eyal.org.uk/,OUT 23/061,-0.2027155,51.9016663
Yorkshire & District League 1,21-May,May,King George V Stadium,Grimsby,1,,,OUT 23/146,-0.0590485,53.555316
Yorkshire & District League Division 2,21-May,May,King George V Stadium,Grimsby,1,,,OUT 23/146,-0.0590485,53.555316
scottishathletics Throws & Jumps Grand Prix 1,21-May,May,Grangemouth Sports Stadium,Grangemouth,2,WA F,,OUT 23/155,-3.7081875,56.0053125
Loughborough International ,21-May,May,Paula Radcliffe Athletics Stadium,Loughborough,2,WA F,,OUT 23/178,-1.230372,52.769183
Avon League,21-May,May,Yate Outdoor Sports Complex,Yate,1,,http://s250914043.websitehome.co.uk/avonleague/,OUT 23/198,-2.4243125,51.55581249
Aztec Track & Field Series,21-May,May,Footes Lane (Garenne Stand),St. Peter Port,1,,,OUT 23/230,-2.5639734,49.4645552
Heart of England League Division 2,21-May,May,Alan Moreton Track (Stourport),Stourport,1,,https://hofe-league.org.uk/,OUT 23/253,-2.280539,52.34658
Devon Open 2,21-May,May,Brickfields Athletic Track,Plymouth,1,,https://data.opentrack.run/en-gb/x/2023/GBR/devonopen23m2/,OUT 23/269,-4.1689375,50.3718125
Mid Lancs Track & Field League,21-May,May,Sheepmount Athletics Stadium,Carlisle,1,,http://www.midlancs.org.uk/,OUT 23/352,-2.947561,54.902903
Notts Mini League,21-May,May,Newark Sports Village,Newark,1,,www. notts-minileague.co.uk,OUT 23/360,-0.8000625,53.0620625
Heart of England League Division 3,21-May,May,The Queen's Diamond Jubilee Centre,Nuneaton,1,,https://hofe-league.org.uk/,OUT 23/361,-1.254627,52.365789
Southern Counties VAC League - Hampshire Division,22-May,May,Southampton Sports Centre (Bassett Outdoor),Southampton,1,,https://www.hampshirevetsleague.org.uk/,OUT 23/133,-1.419689,50.937383
Invicta East Kent AC Open Meeting,22-May,May,Canterbury High School,Canterbury,1,,https://invictaeastkentac.org.uk/index.php,OUT 23/312,1.0634828,51.2793854
Southern Counties Veterans League - South London Division,22-May,May,King Georges Rec Ground (Ewell Court),Ewell,1,,,OUT 23/325,-0.2650625,51.3583125
Southern Counties VAC League - Herts & North Middlesex Division,22-May,May,Lee Valley Athletics Centre,Lee Valley,1,,,OUT 23/326,-0.038032,51.629996
Kettering Town Harriers Evening Open,23-May,May,Kettering Athletics Track,Kettering,1,,https://entry4sports.co.uk/#/,OUT 23/318,-0.717797,52.396803
Oxon & Bucks Midweek Open Meeting,24-May,May,Oxford Horspath Athletics Stadium,Horspath,1,,https://www.rosterathletics.com/,OUT 23/114,-1.1871875,51.7374375
North East Grand Prix,24-May,May,Monkton Stadium,Jarrow,1,,https://necaa.weebly.com/,OUT 23/157,-1.497931582,54.9656323
BMC Regional Meeting,24-May,May,Sutcliffe Park Athletics Track,Eltham,1,,https://www.britishmilersclub.com/,OUT 23/185,0.0541253,51.4505687
Isle of Man League,24-May,May,National Sports Centre (IOM),Douglas,1,,,OUT 23/224,-4.504653,54.152616
Birchfield Mid Week Open,24-May,May,Alexander Stadium - Main Stadium,Birmingham,2,WA,https://entry4sports.co.uk/#/,OUT 23/366,-1.906396,52.530985
Hampshire  Schools AA Pentathlon Championships ,25-May,May,Charlton Centre Athletics Track,Andover,1,,,OUT 23/219,-1.5098125,51.2201875
Waverley Summer Jumps,25-May,May,Woolmer Hill Recreation Ground,Haslemere,1,,,OUT 23/348,-0.74831249,51.0944375
Shropshire Young Athlete's League,25-May,May,Willam Brookes Academy - Much Wenlock,Much Wenlock,1,,,OUT 23/353,-2.5578451,52.5955951
Tommy Clay Development Meeting,26-May,May,Princess Royal Sports Arena (DABSI),Boston,1,,,OUT 23/052,-0.069759,52.9771639
Southern Counties Veterans AC Kent Division 1,26-May,May,Central Park Athletics Arena,Dartford,1,,http://www.scvac.org.uk/track.htm,OUT 23/286,0.220864,51.441631
Southern Counties Veterans AC Kent Division 2,26-May,May,Central Park Athletics Arena,Dartford,1,,http://www.scvac.org.uk/track.htm,OUT 23/286,0.220864,51.441631
Reading AC Development League,26-May,May,Palmer Park Athletic Track,Reading,1,,,OUT 23/305,-0.9696512,51.456659
Northern Inter-County Championship,27-May,May,University of York,York,2,WA F,www.northernathletics.co.uk,OUT 23/036,-1.031459294,53.9453903
Dwarf Sports 30th Anniversary National Games,27-May,May,Aldersley Leisure Village (Wolverhampton),Wolverhampton,1,,,OUT 23/093,-2.1491911,52.6065163
BMC Grand Prix - World Athletics Challenger,27-May,May,Manchester Regional Athletics Arena (outdoor),Sportcity,2,WA D,https://www.britishmilersclub.com/,OUT 23/108,-2.2039375,53.4838125
Loughborough Throws Pathway International,27-May,May,Paula Radcliffe Athletics Stadium,Loughborough,2,WA F,,OUT 23/180,-1.230372,52.769183
"South London Athletics Network 1,2,3,4 Sprint Open & Relay Meeting ",27-May,May,Tooting Bec Athletics Track,Tooting Bec,1,,https://data.opentrack.run/en-gb/x/2023/GBR/sprintslan/ ,OUT 23/210,-0.1458246,51.4311924
Isle of Man Championships,27-May,May,National Sports Centre (IOM),Douglas,1,,,OUT 23/223,-4.504653,54.152616
Alder Valley League - No hammer or discus,27-May,May,Guildford Spectrum Athletic Track,Guildford,1,,,OUT 23/239,-0.5613791,51.2503854
England Athletics Senior & U20 Combined Event Championships,27-May,May,Manchester Regional Athletics Arena,Sportcity,2,WA B,https://www.englandathletics.org/athletics-and-running/england-competitions/national-championships/2023-championships-calendar-and-results/,OUT 23/300,-2.2039375,53.4838125
Derbyshire Mini League,27-May,May,Moorways Athletics Stadium,Derby,1,,,OUT 23/329,-1.457212,52.891228
South West Athletics League,28-May,May,Exeter Arena,Exeter,1,,,OUT 23/055,-3.491320974,50.73765245
Scottish National Athletics League ,28-May,May,Aberdeen Sports Village - Outdoor,Aberdeen,2,WA F,,OUT 23/097,-2.093606,57.162666
Isle of Man Championships,28-May,May,National Sports Centre (IOM),Douglas,1,,,OUT 23/223,-4.504653,54.152616
Aztec Track & Field Series,28-May,May,Footes Lane (Garenne Stand),St. Peter Port,1,,,OUT 23/230,-2.5639734,49.4645552
England Athletics Senior & U20 Combined Event Championships,28-May,May,Manchester Regional Athletics Arena,Sportcity,2,WA B,https://www.englandathletics.org/athletics-and-running/england-competitions/national-championships/2023-championships-calendar-and-results/,OUT 23/300,-2.2039375,53.4838125
Trafford Medal Meetings,29-May,May,Longford Park Athletics Stadium,Stretford,1,,https://www.traffordac.co.uk/php/index.php?script=home.php,OUT 23/022,-2.28935,53.44636
Newham & Essex Beagles Track Open Meetings Summer Series 2023,29-May,May,London Marathon Community Track,London (CT),2,WA F,https://entry4sports.co.uk/,OUT 23/143,-0.016941,51.536909
Cleethorpes Athletics Club Open Meeting,29-May,May,King George V Stadium,Grimsby,1,,,OUT 23/209,-0.0590485,53.555316
BCLF Hurdle Festival Support by England Athletics & Chelmsford Sport & Athletics Centre,29-May,May,Chelmsford Sport & Athletics Centre,Chelmsford,2,WA F,https://data.opentrack.run/en-gb/x/2023/GBR/csac-tn12/,OUT 23/250,0.4505023408,51.75319275
Trafford Grand Prix,30-May,May,Longford Park Athletics Stadium,Stretford,2,WA F,https://www.traffordac.co.uk/php/index.php?script=home.php,OUT 23/065,-2.28935,53.44636
North Yorkshire & South Durham Series,30-May,May,Shildon - Stadium 2000,Shildon,1,,http://www.nysd.org.uk/category/track-field/,OUT 23/213,-1.648251,54.632837
Exeter Evening Open Meeting,30-May,May,Exeter Arena,Exeter,1,,https://exeterharriers.org.uk/events/exeter-open-competitions/,OUT 23/342,-3.491320974,50.73765245
BMC Regional - Exeter,30-May,May,Exeter Arena,Exeter,1,,https://www.britishmilersclub.com/,OUT 23/344,-3.491320974,50.73765245
Welsh 3000m & 5000m Championships,31-May,May,Newport Stadium,Newport,2,WA F,,OUT 23/017,-2.959379,51.5737902
Cambridgeshire Evening Open Meeting 1,31-May,May,"One Leisure Outdoor Centre, St. Ives",St. Ives,1,,https://data.opentrack.run/en-gb/x/2023/GBR/camopen1/ ,OUT 23/033,-0.092947,52.336512
West Yorkshire League,31-May,May,Princess Mary Athletic Stadium,Cleckheaton,1,,www.wakefield -harriers.co.uk/wytfl/wyl23index.htm,OUT 23/078,-1.7140939,53.7264346
Watford Harriers Open Graded Meetings,31-May,May,Woodside Stadium,Watford,2,WA F,,OUT 23/092,-0.3945440682,51.69587595
Watford Open Field Events,31-May,May,Woodside Stadium,Watford,1,,,OUT 23/100,-0.3945440682,51.69587595
Loughborough Open,31-May,May,Paula Radcliffe Athletics Stadium,Loughborough,2,WA F,https://www.lboro.ac.uk/sport/sports/athletics/competition-entries/,OUT 23/181,-1.230372,52.769183
Chelmsford Open Meeting ,31-May,May,Chelmsford Sport & Athletics Centre,Chelmsford,1,,,OUT 23/240,0.4505023408,51.75319275
"North Eastern Counties AA 10,000m Track Championships",31-May,May,Churchill,Whitley Bay,1,,https://www.nemaa.co.uk/necaa.html,OUT 23/268,-1.4620499,55.045704
Southern Counties Veterans AC Kent Division 1,2-Jun,Jun,Tonbridge School Athletics Track,Tonbridge,1,,http://www.scvac.org.uk/track.htm,OUT 23/286,0.275167,51.200872
Southern Counties Veterans AC Kent Division 2,2-Jun,Jun,Tonbridge School Athletics Track,Tonbridge,1,,http://www.scvac.org.uk/track.htm,OUT 23/286,0.275167,51.200872
Northern Senior & U20 Outdoor Championships,3-Jun,Jun,Manchester Regional Athletics Arena (Outdoor),Sportcity,2,WA F,https://www.northernathletics.co.uk/#,OUT 23/047,-2.2039375,53.4838125
Iffley Festival of Miles,3-Jun,Jun,Iffley Road Athletics Track (OU),Oxford,2,WA F,https://data.opentrack.run/en-gb/x/2023/GBR/ifm/,OUT 23/094,-1.2445625,51.7455625
The Tracksmith Amateur Mile,3-Jun,Jun,Tooting Bec Athletics Track,Tooting Bec,1,,https://data.opentrack.run/en-gb/x/2023/GBR/tracksmith2/ ,OUT 23/211,-0.1458246,51.4311924
British Milers Club PB Classic,3-Jun,Jun,Millfield School Athletics Track,Street,1,,,OUT 23/276,-2.726463,51.120136
British Milers PB classic,3-Jun,Jun,Iffley Road Athletics Track (OU),Oxford,1,,,OUT 23/328,-1.2445625,51.7455625
South of England Senior/U20 Championships,3-Jun,Jun,Chelmsford Sport & Athletics Centre,Chelmsford,2,WA F,,OUT 23/245,0.4505023408,51.75319275
Wessex Young Athletes' League,4-Jun,Jun,Salisbury Running Track,Salisbury,1,,https://www.wessexleaguetandf.co.uk/,OUT 23/038,-1.8018125,51.0814375
Wessex Young Athletes' League,4-Jun,Jun,Down Grange Athletic Track,Basingstoke,1,,https://www.wessexleaguetandf.co.uk/,OUT 23/038,-1.1265625,51.2483125
Northern Senior & U20 Outdoor Championships,4-Jun,Jun,Manchester Regional Athletics Arena (Outdoor),Sportcity,2,WA F,https://www.northernathletics.co.uk/#,OUT 23/047,-2.2039375,53.4838125
Watford Harriers Minors Meetings,4-Jun,Jun,Woodside Stadium,Watford,1,,https://watfordharriers.org.uk/,OUT 23/062,-0.3945440682,51.69587595
East Anglian League,4-Jun,Jun,Wellesley Recreation Ground,Great Yarmouth,1,,http://cambsathletics.org.uk/east-anglian-tf-league/,OUT 23/124,1.735657,52.615934
East Anglian League,4-Jun,Jun,Embankment Athletics Track,Peterborough,1,,http://cambsathletics.org.uk/east-anglian-tf-league/,OUT 23/124,-0.233043,52.570904
East Anglian League,4-Jun,Jun,West Suffolk Athletics Arena,Bury St. Edmunds,1,,http://cambsathletics.org.uk/east-anglian-tf-league/,OUT 23/124,0.6994769977,52.25094525
UK Youth Development League Lower - Scottish Division 1 - NO POLE VAULT,4-Jun,Jun,Ayrshire Athletics Arena,Kilmarnock,1,,https://www.ukydl.org.uk/,OUT 23/164,-4.480037,55.599577
UK Youth Development League Lower - Scottish Division 2 - NO POLE VAULT,4-Jun,Jun,Ayrshire Athletics Arena,Kilmarnock,1,,https://www.ukydl.org.uk/,OUT 23/164,-4.480037,55.599577
UK Youth Development League Lower - Scottish North East,4-Jun,Jun,Queens Park Athletics Stadium,Inverness,1,,https://www.ukydl.org.uk/,OUT 23/164,-4.225739,57.4790124
Middlesex Young Athletes League,4-Jun,Jun,Bannister Sports Centre,Harrow,1,,,OUT 23/277,-0.3521277401,51.61165605
South of England Senior/U20 Championships,4-Jun,Jun,Chelmsford Sport & Athletics Centre,Chelmsford,2,WA F,,OUT 23/245,0.4505023408,51.75319275
BMC Regional Race,5-Jun,Jun,Beckett Park Athletics Centre,Leeds (B),1,,https://www.britishmilersclub.com/,OUT 23/192,-1.5951875,53.82806249
Southern Counties VAC League - Mid-London Division,5-Jun,Jun,Hillingdon Athletics Centre,Hillingdon,1,,,OUT 23/195,-0.4696,51.532412
North East Masters AA League,5-Jun,Jun,Monkton Stadium,Jarrow,1,,https://www.nemaa.co.uk/track-and-field.html,OUT 23/205,-1.497931582,54.9656323
Derby Athletics Development Association Midweek Opens,6-Jun,Jun,Moorways Athletics Stadium,Derby,1,,,OUT 23/109,-1.457212,52.891228
RJT & NMAC Series Sheffield 2023,6-Jun,Jun,Shu City Athletics Stadium (Woodburn Road),Sheffield,1,,https://www.race-results.co.uk/results/2023/67,OUT 23/295,-1.4324375,53.3894375
Manchester Open Pole Vault,6-Jun,Jun,Manchester Regional Athletics Arena,Sportcity,2,WA F,,OUT 23/302,-2.2039375,53.4838125
Oxon & Bucks Midweek Open Meeting,7-Jun,Jun,Oxford Horspath Athletics Stadium,Horspath,1,,https://www.rosterathletics.com/,OUT 23/114,-1.1871875,51.7374375
Midland Veterans League - North,7-Jun,Jun,Shobnall Athletics Track,Burton,1,,https://mvtfl.wordpress.com/,OUT 23/147,-0.56667,53.26667
Eastern Masters League,7-Jun,Jun,Rockingham Triangle Sports Stadium (Corby),Corby,1,,https://emac.org.uk/2023-tf-league/,OUT 23/215,-0.71468749,52.5070625
Eastern Masters League,7-Jun,Jun,Cambridge University Athletics Track,Cambridge,1,,https://emac.org.uk/2023-tf-league/,OUT 23/215,0.098906,52.206767
Eastern Masters League,7-Jun,Jun,Blackshots Athletic Stadium (Thurrock),Grays,1,,https://emac.org.uk/2023-tf-league/,OUT 23/215,0.3470567,51.4935653
BMC Gold Standard Races,7-Jun,Jun,University of Birmingham,Birmingham (U),2,WA F,,OUT 23/303,-1.93012,52.45082
University of Birmingham Series,7-Jun,Jun,University of Birmingham,Birmingham (U),2,,,OUT 23/331,-1.93012,52.45082
The 14th Joe Moran Memorial  Veteran Meeting,7-Jun,Jun,Manchester Regional Athletics Arena,Sportcity,1,,,OUT 23/338,-2.2039375,53.4838125
Tommy Clay Development Meeting,9-Jun,Jun,Princess Royal Sports Arena (DABSI),Boston,1,,,OUT 23/052,-0.069759,52.9771639
East Area Prep Schools Championships,9-Jun,Jun,Bedford International Athletics Stadium,Bedford,1,,,OUT 23/340,-0.4418125,52.1336875
British Milers Club Grand Prix,10-Jun,Jun,Paula Radcliffe Athletics Stadium,Loughborough,2,WA D,https://www.britishmilersclub.com/,OUT 23/255,-1.230372,52.769183
South Yorkshire County Schools Championships,10-Jun,Jun,Keepmoat Stadium,Doncaster,1,,,OUT 23/347,-1.113771303,53.50977845
Warwickshire County Schools Championships,10-Jun,Jun,The Pingles Stadium,Nuneaton,1,,,OUT 23/355,-1.464162493,52.515688
Nottinghamshire County Schools Championshisp,10-Jun,Jun,Newark Sports Village,Newark,1,,,OUT 23/356,-0.8000625,53.0620625
West Yorkshire County Schools Championships,10-Jun,Jun,Beckett Park Athletics Centre,Leeds (B),1,,,OUT 23/362,-1.5951875,53.82806249
National Athletics League Premier Division Fixture A,11-Jun,Jun,Manchester Regional Athletics Arena,Sportcity,2,WA E,https://www.nationalathleticsleague.org.uk/,OUT 23/023,-2.2039375,53.4838125
Wessex Young Athletes' League,11-Jun,Jun,Aldershot Military Stadium,Aldershot,1,,https://www.wessexleaguetandf.co.uk/,OUT 23/038,-0.7545890271,51.26467925
Wessex Young Athletes' League,11-Jun,Jun,University of Winchester,Winchester,1,,https://www.wessexleaguetandf.co.uk/,OUT 23/038,-1.3038125,51.05431249
National Athletics League Premier Division Fixture B,11-Jun,Jun,Thames Valley Athletics Centre (Eton),Eton,2,WA F,https://www.nationalathleticsleague.org.uk/,OUT 23/068,-0.5959682922,51.49453235
Humber County AA  Open Series 1,11-Jun,Jun,Costello Stadium,Hull,1,,,OUT 23/081,-0.4107359,53.7372742
Midland Masters Championships,11-Jun,Jun,The Pingles Stadium,Nuneaton,2,,,OUT 23/174,-1.464162493,52.515688
National Athletics League Division 1,11-Jun,Jun,Palmer Park Athletic Track,Reading,1,,,OUT 23/193,-0.9696512,51.456659
Manx Harriers Championships,11-Jun,Jun,National Sports Centre (IOM),Douglas,1,,,OUT 23/225,-4.504653,54.152616
Aztec Track & Field Series,11-Jun,Jun,Footes Lane (Garenne Stand),St. Peter Port,1,,,OUT 23/230,-2.5639734,49.4645552
Triangular League,11-Jun,Jun,Dell Athletics Stadium,Brierley Hill,1,,,OUT 23/282,-2.1237803,52.4823185
Trafford Grand Prix,13-Jun,Jun,Longford Park Athletics Stadium,Stretford,2,WA F,https://www.traffordac.co.uk/php/index.php?script=home.php,OUT 23/065,-2.28935,53.44636
BMC Gold Standard  - Trafford ,13-Jun,Jun,Longford Park Athletics Stadium,Stretford,2,WA F,https://www.britishmilersclub.com/,OUT 23/125,-2.28935,53.44636
Cambridgeshire Evening Open Meeting 2,14-Jun,Jun,"One Leisure Outdoor Centre, St. Ives",St. Ives,1,,https://data.opentrack.run/en-gb/x/2023/GBR/camopen2/,OUT 23/034,-0.092947,52.336512
Watford Harriers Open Graded Meetings,14-Jun,Jun,Woodside Stadium,Watford,2,WA F,,OUT 23/092,-0.3945440682,51.69587595
Watford Open Field Events,14-Jun,Jun,Woodside Stadium,Watford,1,,,OUT 23/100,-0.3945440682,51.69587595
BMC Watford Gold Standard,14-Jun,Jun,Woodside Stadium,Watford,2,WA F,https://www.britishmilersclub.com/,OUT 23/138,-0.3945440682,51.69587595
Manchester World Athletics Continental Tour - CANCELLED,14-Jun,Jun,Manchester Regional Athletics Arena (Outdoor),Sportcity,2,,,CANCELLED,-2.2039375,53.4838125
North East Grand Prix,14-Jun,Jun,Monkton Stadium,Jarrow,1,,https://necaa.weebly.com/,OUT 23/157,-1.497931582,54.9656323
Isle of Man League,14-Jun,Jun,National Sports Centre (IOM),Douglas,1,,,OUT 23/224,-4.504653,54.152616
Chelmsford Open Meeting ,14-Jun,Jun,Chelmsford Sport & Athletics Centre,Chelmsford,1,,,OUT 23/240,0.4505023408,51.75319275
BMC Regional Race,14-Jun,Jun,Paula Radcliffe Athletics Stadium,Loughborough,1,,https://www.britishmilersclub.com/,OUT 23/320,-1.230372,52.769183
Rosenheim League - West,14-Jun,Jun,King Georges Rec Ground (Ewell Court),Ewell,1,,,OUT 23/350,-0.2650625,51.3583125
Rosenheim League - East,14-Jun,Jun,David Weir Leisure Centre (formerly Sutton Arena),Carshalton,1,,,OUT 23/350,-0.1814375,51.3841875
Northern Ireland & Ulster Senior TF Championships,16-Jun,Jun,Mary Peters Stadium,Belfast,2,WA E,,OUT 23/045,-5.967179,54.548531
Reading AC Development League,16-Jun,Jun,Palmer Park Athletic Track,Reading,1,,,OUT 23/305,-0.9696512,51.456659
Northern Ireland & Ulster Senior TF Championships,17-Jun,Jun,Mary Peters Stadium,Belfast,2,WA E,,OUT 23/045,-5.967179,54.548531
BWAA Grand Prix Series,17-Jun,Jun,Stoke Mandeville Stadium,Stoke Mandeville,2,,,OUT 23/089,-0.784342,51.787885
scottishathletics Throws & Jumps Grand Prix 3,17-Jun,Jun,Caird Park,Dundee,2,WA F,,OUT 23/152,-2.962615327,56.4862297
North East Masters AA Championships,17-Jun,Jun,Monkton Stadium,Jarrow,1,,https://www.nemaa.co.uk/track-and-field.html,OUT 23/204,-1.497931582,54.9656323
England Athletics U20 Championships & U20 Open,17-Jun,Jun,Chelmsford Sport & Athletics Centre,Chelmsford,2,WA,https://www.englandathletics.org/athletics-and-running/england-competitions/national-championships/2023-championships-calendar-and-results/,OUT 23/290,0.4505023408,51.75319275
Mid Lancs Track & Field League,17-Jun,Jun,Litherland Athletics Track,Litherland,1,,http://www.midlancs.org.uk/,OUT 23/352,-2.9868125,53.4790625
Kent Young Athletes League Division 1,17-Jun,Jun,Norman Park Athletic Track,Bromley,1,,,OUT 23/357,0.0213125,51.3868125
Kent Young Athletes League Division 2,17-Jun,Jun,Norman Park Athletic Track,Bromley,1,,,OUT 23/357,0.0213125,51.3868125
Northern Track & Field League East 1S,18-Jun,Jun,Moorways Athletics Stadium,Derby,1,,https://www.northernathletics.co.uk/track-field-league/,OUT 23/028,-1.457212,52.891228
Northern Track & Field League East 1N,18-Jun,Jun,Princess Mary Athletic Stadium,Cleckheaton,1,,https://www.northernathletics.co.uk/track-field-league/,OUT 23/029,-1.7140939,53.7264346
Northern Track & Field League West Premier,18-Jun,Jun,The Oval Stadium,Bebington,1,,https://www.northernathletics.co.uk/track-field-league/,OUT 23/030,-3.0098125,53.3579375
Northern Track & Field League West 2,18-Jun,Jun,Sheepmount Athletics Stadium,Carlisle,1,,https://www.northernathletics.co.uk/track-field-league/,OUT 23/031,-2.947561,54.902903
Northern Track & Field League North East 1,18-Jun,Jun,Churchill,Whitley Bay,1,,https://www.northernathletics.co.uk/track-field-league/,OUT 23/032,-1.4620499,55.045704
Northern Track & Field League East Premier,18-Jun,Jun,Shu City Athletics Stadium (Woodbourn Road),Sheffield,1,,https://www.northernathletics.co.uk/track-field-league/,OUT 23/044,-1.4324375,53.3894375
Southern Athletics League Division 3 West,18-Jun,Jun,County Ground Track - Swindon,Swindon,1,,https://www.southernathletics.org.uk/,OUT 23/060,-1.77101507,51.56446595
Southern Athletics League Division 2 North & East,18-Jun,Jun,Westminster Lodge Athletics Track,St. Albans,1,,https://www.southernathletics.org.uk/,OUT 23/070,-0.344495,51.745663
Southern Athletics League Division 2 North & East,18-Jun,Jun,Dacorum Athletics Track (Jarman Park),Hemel Hempstead,1,,https://www.southernathletics.org.uk/,OUT 23/070,-0.457736,51.746359
Southern Athletics League Division 2 North & East,18-Jun,Jun,Mile End Stadium,Mile End,1,,https://www.southernathletics.org.uk/,OUT 23/070,-0.03276773025,51.5190224
Northern Track & Field League West 1S,18-Jun,Jun,Wavertree Athletic Track,Liverpool,1,,https://www.northernathletics.co.uk/track-field-league/,OUT 23/075,-2.9239375,53.3958125
Northern Track & Field League West 1N,18-Jun,Jun,Market Street Athletics Track,Bury,1,,https://www.northernathletics.co.uk/track-field-league/,OUT 23/084,-2.323851,53.591353
Scottish National Athletics League ,18-Jun,Jun,Grangemouth Sports Stadium,Grangemouth,2,WA F,,OUT 23/097,-3.7081875,56.0053125
Northern Track & Field League North East Premier,18-Jun,Jun,Shildon - Stadium 2000,Shildon,1,,https://www.northernathletics.co.uk/track-field-league/,OUT 23/107,-1.648251,54.632837
Northern Track & Field League East 2,18-Jun,Jun,Dorothy Hyman Sports Centre,Cudworth,1,,https://www.northernathletics.co.uk/track-field-league/,OUT 23/120,-1.411029309,53.57425995
Midland Counties League Technical Events,18-Jun,Jun,The Pingles Stadium,Nuneaton,1,,https://midland-athletics.co.uk/disciplines/league/,OUT 23/170,-1.464162493,52.515688
Southern Athletics League Divisions 3 Kent,18-Jun,Jun,Lewes Community Athletics Track,Lewes,1,,https://www.southernathletics.org.uk/,OUT 23/226,0.018633,50.868186
Southern Athletics League Divisions 3 South,18-Jun,Jun,Lewes Community Athletics Track,Lewes,1,,https://www.southernathletics.org.uk/,OUT 23/226,0.018633,50.868186
England Athletics U20 Championships & U20 Open,18-Jun,Jun,Chelmsford Sport & Athletics Centre,Chelmsford,2,WA,https://www.englandathletics.org/athletics-and-running/england-competitions/national-championships/2023-championships-calendar-and-results/,OUT 23/290,0.4505023408,51.75319275
Southern Athletics League Division 1,18-Jun,Jun,Thames Valley Athletics Centre (Eton),Eton,1,,https://www.southernathletics.org.uk/,OUT 23/341,-0.5959682922,51.49453235
Southern Athletics League Division 1,18-Jun,Jun,Bannister Sports Centre,Harrow,1,,https://www.southernathletics.org.uk/,OUT 23/341,-0.3521277401,51.61165605
Southern Athletics League Division 1,18-Jun,Jun,Linford Christie Stadium,Wormwood Scrubs,1,,https://www.southernathletics.org.uk/,OUT 23/341,-0.235065,51.519692
Southern Athletics League Division 3 North,18-Jun,Jun,Cambridge University Athletics Track,Cambridge,1,,https://www.southernathletics.org.uk/,OUT 23/349,0.098906,52.206767
Southern Athletics League Division 3 North,18-Jun,Jun,Stockwood Park Stadium,Luton,1,,https://www.southernathletics.org.uk/,OUT 23/349,-0.425003,51.864491
Southern Athletics League Division 3 North - No Pole Vault,18-Jun,Jun,Southend Leisure & Tennis Centre Athletics Track,Southend,1,,https://www.southernathletics.org.uk/,OUT 23/349,0.73458859,51.5546036
Southern Counties VAC League - Hampshire Division,19-Jun,Jun,University of Winchester,Winchester,1,,https://www.hampshirevetsleague.org.uk/,OUT 23/133,-1.3038125,51.05431249
Southern Counties VAC League - Mid-London Division,19-Jun,Jun,Millenium Arena Battersea Park,Battersea Park,1,,,OUT 23/195,-0.146969,51.47698
Invicta East Kent AC Open Meeting,19-Jun,Jun,Canterbury High School,Canterbury,1,,https://invictaeastkentac.org.uk/index.php,OUT 23/312,1.0634828,51.2793854
Southern Counties Veterans League - South London Division,19-Jun,Jun,David Weir Leisure Centre (formerley Sutton Arena),Carshalton,1,,,OUT 23/325,-0.1814375,51.3841875
North Yorkshire & South Durham Series,20-Jun,Jun,Shildon - Stadium 2000,Shildon,1,,http://www.nysd.org.uk/category/track-field/,OUT 23/213,-1.648251,54.632837
Kettering Town Harriers Evening Open,20-Jun,Jun,Kettering Athletics Track,Kettering,1,,https://entry4sports.co.uk/#/,OUT 23/318,-0.717797,52.396803
Waverley Summer Jumps,20-Jun,Jun,Woolmer Hill Recreation Ground,Haslemere,1,,,OUT 23/348,-0.74831249,51.0944375
West Yorkshire League,21-Jun,Jun,Thornes Park Athletics Stadium,Wakefield,1,,www.wakefield -harriers.co.uk/wytfl/wyl23index.htm,OUT 23/078,-1.51464,53.67606
BMC Regional Meeting,21-Jun,Jun,Sutcliffe Park Athletics Track,Eltham,1,,https://www.britishmilersclub.com/,OUT 23/185,0.0541253,51.4505687
British Milers Regional Meeting,21-Jun,Jun,Linford Christie Stadium,Wormwood Scrubs,1,,https://www.britishmilersclub.com/,OUT 23/256,-0.235065,51.519692
British Milers Club Regional Race,21-Jun,Jun,Bracknell Sports & Leisure Centre Athletics Stadium,Bracknell,1,,https://www.britishmilersclub.com/,OUT 23/262,-0.7449925,51.4143513
Thames Valley Harriers Open Meeting,21-Jun,Jun,Linford Christie Stadium,Wormwood Scrubs,1,,https://entry4sports.co.uk/#/,OUT 23/327,-0.235065,51.519692
The Manchester Mile,21-Jun,Jun,Manchester Regional Athletics Arena,Sportcity,1,,,OUT 23/339,-2.2039375,53.4838125
Shropshire Young Athletes League,22-Jun,Jun,Telford Athletics Stadium,Telford,1,,,OUT 23/310,-2.449812,52.7073978
Shropshire Young Athlete's League,22-Jun,Jun,Telford Athletics Stadium,Telford,1,,,OUT 23/353,-2.449812,52.7073978
Tommy Clay Development Meeting,23-Jun,Jun,Princess Royal Sports Arena (DABSI),Boston,1,,,OUT 23/052,-0.069759,52.9771639
Southern Counties Veterans AC Kent Division 1,23-Jun,Jun,Norman Park Athletic Track,Bromley,1,,http://www.scvac.org.uk/track.htm,OUT 23/286,0.0213125,51.3868125
Southern Counties Veterans AC Kent Division 2,23-Jun,Jun,Norman Park Athletic Track,Bromley,1,,http://www.scvac.org.uk/track.htm,OUT 23/286,0.0213125,51.3868125
Trafford Medal Meetings,24-Jun,Jun,Longford Park Athletics Stadium,Stretford,1,,https://www.traffordac.co.uk/php/index.php?script=home.php,OUT 23/022,-2.28935,53.44636
MilesofMiles ,24-Jun,Jun,Chelmsford Sport & Athletics Centre,Chelmsford,1,,,OUT 23/137,0.4505023408,51.75319275
Middlesex Young Athletes League,24-Jun,Jun,Finsbury Park,Finsbury Park,1,,,OUT 23/277,-0.1010625,51.5715625
Eastern AA Championships,24-Jun,Jun,Cambridge University Athletics Track,Cambridge,2,,https://www.race-results.co.uk/results/2023/,OUT 23/359,0.098906,52.206767
Notts Mini League,24-Jun,Jun,Bingham Athletics Track,Bingham,1,,,OUT 23/364,-0.9509375,52.9461875
Wessex Young Athletes' League,25-Jun,Jun,Down Grange Athletic Track,Basingstoke,1,,https://www.wessexleaguetandf.co.uk/,OUT 23/038,-1.1265625,51.2483125
Wessex Young Athletes' League,25-Jun,Jun,Oxford Horspath Athletics Stadium,Horspath,1,,https://www.wessexleaguetandf.co.uk/,OUT 23/038,-1.1871875,51.7374375
Wessex Young Athletes' League,25-Jun,Jun,Ashdown Leisure Centre,Poole,1,,https://www.wessexleaguetandf.co.uk/,OUT 23/038,-1.9664201,50.7487411
North East Youth Development League - Division 1,25-Jun,Jun,Shildon - Stadium 2000,Shildon,1,,http://www.neydl.website,OUT 23/048,-1.648251,54.632837
North East Youth Development League - Division 2,25-Jun,Jun,Monkton Stadium,Jarrow,1,,http://www.neydl.website,OUT 23/048,-1.497931582,54.9656323
4J Studios scottishathletics National Relay Championships,25-Jun,Jun,Scotstoun Stadium,Scotstoun,2,,https://scottishathletics.sportserve.net/pages/event/athletics/athleticsfixturelist.aspx?pid=10000,OUT 23/103,-4.342293155,55.88168955
Yorkshire & District League 1,25-Jun,Jun,Dorothy Hyman Sports Centre,Cudworth,1,,,OUT 23/146,-1.411029309,53.57425995
Yorkshire & District League Division 2,25-Jun,Jun,Dorothy Hyman Sports Centre,Cudworth,1,,,OUT 23/146,-1.411029309,53.57425995
Avon League,25-Jun,Jun,Yate Outdoor Sports Complex,Yate,1,,http://s250914043.websitehome.co.uk/avonleague/,OUT 23/198,-2.4243125,51.55581249
Aztec Track & Field Series,25-Jun,Jun,Footes Lane (Garenne Stand),St. Peter Port,1,,,OUT 23/230,-2.5639734,49.4645552
UK Youth Development League Upper - Southern Premier,25-Jun,Jun,Norman Park Athletic Track,Bromley,2,WA F,,OUT 23/258,0.0213125,51.3868125
Southern Counties VAC League - Herts & North Middlesex Division,26-Jun,Jun,Ridlins Wood Athletics Track,Stevenage,1,,,OUT 23/326,-0.2027155,51.9016663
Trafford Grand Prix,27-Jun,Jun,Longford Park Athletics Stadium,Stretford,2,WA F,https://www.traffordac.co.uk/php/index.php?script=home.php,OUT 23/065,-2.28935,53.44636
Exeter Evening Open Meeting,27-Jun,Jun,Exeter Arena,Exeter,1,,https://exeterharriers.org.uk/events/exeter-open-competitions/,OUT 23/342,-3.491320974,50.73765245
BMC Regional - Exeter,27-Jun,Jun,Exeter Arena,Exeter,1,,https://www.britishmilersclub.com/,OUT 23/344,-3.491320974,50.73765245
Watford Harriers Open Graded Meetings,28-Jun,Jun,Woodside Stadium,Watford,2,WA F,,OUT 23/092,-0.3945440682,51.69587595
Watford Open Field Events,28-Jun,Jun,Woodside Stadium,Watford,1,,,OUT 23/100,-0.3945440682,51.69587595
Isle of Man League,28-Jun,Jun,National Sports Centre (IOM),Douglas,1,,,OUT 23/224,-4.504653,54.152616
Newham & Essex Beagles Track Open Meetings Summer Series 2023,30-Jun,Jun,London Marathon Community Track,London (CT),2,WA,https://entry4sports.co.uk/,OUT 23/143,-0.016941,51.536909
Northern Ireland & Ulster Combined Event Championships,1-Jul,Jul,Mary Peters Stadium,Belfast,2,WA F,,OUT 23/046,-5.967179,54.548531
National Junior Athletics Championships ,1-Jul,Jul,Coventry Athletic Track - University of Warwick,Coventry,2,,,OUT 23/083,-1.510477,52.4081812
BMC Grand Prix - World Athletics Challenger,1-Jul,Jul,Woodside Stadium,Watford,2,WA D,https://www.britishmilersclub.com/,OUT 23/182,-0.3945440682,51.69587595
Cumbria League No pole vault/hammer/discus,1-Jul,Jul,Barrow in Furness Academy,Barrow,1,,,OUT 23/337,-3.220656,54.117804
Northern Track & Field League West Premier,2-Jul,Jul,Witton Park Track,Blackburn,1,,https://www.northernathletics.co.uk/track-field-league/,OUT 23/030,-2.5148125,53.7391875
Wessex Young Athletes' League,2-Jul,Jul,Aldershot Military Stadium,Aldershot,1,,https://www.wessexleaguetandf.co.uk/,OUT 23/038,-0.7545890271,51.26467925
Wessex Young Athletes' League,2-Jul,Jul,Fairway Athletics Centre,Sandown,1,,https://www.wessexleaguetandf.co.uk/,OUT 23/038,-1.1655271,50.6588065
Northern Ireland & Ulster Combined Event Championships,2-Jul,Jul,Mary Peters Stadium,Belfast,2,WA F,,OUT 23/046,-5.967179,54.548531
Pontefract Open Meeting,2-Jul,Jul,Dorothy Hyman Sports Centre,Cudworth,1,,,OUT 23/050,-1.411029309,53.57425995
Eastern Young Athletes League,2-Jul,Jul,Embankment Athletics Track,Peterborough,1,,http://eyal.org.uk/,OUT 23/061,-0.233043,52.570904
Eastern Young Athletes League,2-Jul,Jul,Chelmsford Sport & Athletics Centre,Chelmsford,1,,http://eyal.org.uk/,OUT 23/061,0.4505023408,51.75319275
Eastern Young Athletes League,2-Jul,Jul,Hornchurch Stadium,Hornchurch,1,,http://eyal.org.uk/,OUT 23/061,0.2383170571,51.5565905
Eastern Young Athletes League,2-Jul,Jul,Westminster Lodge Athletics Track,St. Albans,1,,http://eyal.org.uk/,OUT 23/061,-0.344495,51.745663
National Junior Athletics Championships ,2-Jul,Jul,Coventry Athletic Track - University of Warwick,Coventry,2,,,OUT 23/083,-1.510477,52.4081812
Alder Valley League,2-Jul,Jul,Thames Valley Athletics Centre (Eton),Eton,1,,,OUT 23/239,-0.5959682922,51.49453235
137th Wenlock Olympian Games,2-Jul,Jul,William Brookes Academy - Much Wenlock,Much Wenlock,1,,https://data.opentrack.run/en-gb/x/2023/GBR/wenlockgames/,OUT 23/251,-2.557436,52.596267
Huntingdonshire AC Club Championships,2-Jul,Jul,"One Leisure Outdoor Centre, St. Ives",St. Ives,1,,,OUT 23/272,-0.092947,52.336512
North East Masters AA League,3-Jul,Jul,Monkton Stadium,Jarrow,1,,https://www.nemaa.co.uk/track-and-field.html,OUT 23/205,-1.497931582,54.9656323
National Preparatory Schools Athletics Championships,3-Jul,Jul,The Pingles Stadium,Nuneaton,1,,,OUT 23/294,-1.464162493,52.515688
RJT & NMAC Series Sheffield 2023,4-Jul,Jul,Shu City Athletics Stadium (Woodburn Road),Sheffield,1,,https://www.race-results.co.uk/results/2023/67,OUT 23/295,-1.4324375,53.3894375
Oxon & Bucks Midweek Open Meeting,5-Jul,Jul,Oxford Horspath Athletics Stadium,Horspath,1,,https://www.rosterathletics.com/,OUT 23/114,-1.1871875,51.7374375
Eastern Masters League,5-Jul,Jul,Lynnsport Athletics Track,King's Lynn,1,,https://emac.org.uk/2023-tf-league/,OUT 23/215,0.3954774,52.7538673
Eastern Masters League,5-Jul,Jul,Bedford International Athletics Stadium,Bedford,1,,https://emac.org.uk/2023-tf-league/,OUT 23/215,-0.4418125,52.1336875
Eastern Masters League,5-Jul,Jul,West Suffolk Athletics Arena,Bury St. Edmunds,1,,https://emac.org.uk/2023-tf-league/,OUT 23/215,0.6994769977,52.25094525
Shropshire Young Athlete's League,6-Jul,Jul,Willam Brookes Academy - Much Wenlock,Much Wenlock,1,,,OUT 23/353,-2.5578451,52.5955951
Tommy Clay Development Meeting,7-Jul,Jul,Princess Royal Sports Arena (DABSI),Boston,1,,,OUT 23/052,-0.069759,52.9771639
"Northern 10,000m Championships ",7-Jul,Jul,Leigh Sports Village,Leigh,2,WA F,https://www.northernathletics.co.uk/#,OUT 23/066,-2.5305682,53.4883788
Southern Counties Veterans AC Kent Division 1,7-Jul,Jul,Tonbridge School Athletics Track,Tonbridge,1,,http://www.scvac.org.uk/track.htm,OUT 23/286,0.275167,51.200872
Southern Counties Veterans AC Kent Division 2,7-Jul,Jul,Tonbridge School Athletics Track,Tonbridge,1,,http://www.scvac.org.uk/track.htm,OUT 23/286,0.275167,51.200872
"Gloucester Track Races 100km, 50km & Marathon",8-Jul,Jul,Blackbridge Athletics Track,Gloucester,2,,https://eventswerun.co.uk/100km-50km-marathon,OUT 23/005,-2.235105,51.853862
"4J Studios scottishathletics Combined Events, Masters & Parallel Success Open",8-Jul,Jul,Grangemouth Sports Stadium,Grangemouth,2,WA F,https://scottishathletics.sportserve.net/pages/event/athletics/athleticsfixturelist.aspx?pid=10000,OUT 23/126,-3.7081875,56.0053125
ESAA English Schools AA Cup,8-Jul,Jul,Chelmsford Sport & Athletics Centre,Chelmsford,2,,https://esaa.org.uk/,OUT 23/354,0.4505023408,51.75319275
John Matthews & Mike Swain Memorial Jumps & Throws  Open Meeting,8-Jul,Jul,Thornes Park Athletics Stadium,Wakefield,1,,https://www.race-results.co.uk/results/2023/,OUT 23/363,-1.51464,53.67606
Northern Track & Field League East 1S,9-Jul,Jul,Keepmoat Stadium,Doncaster,1,,https://www.northernathletics.co.uk/track-field-league/,OUT 23/028,-1.113771303,53.50977845
Northern Track & Field League East 1N,9-Jul,Jul,University of York,York,1,,https://www.northernathletics.co.uk/track-field-league/,OUT 23/029,-1.031459294,53.9453903
Northern Track & Field League West 2,9-Jul,Jul,Manchester Regional Athletics Arena,Sportcity,1,,https://www.northernathletics.co.uk/track-field-league/,OUT 23/031,-2.2039375,53.4838125
Northern Track & Field League North East 1,9-Jul,Jul,Monkton Stadium,Jarrow,1,,https://www.northernathletics.co.uk/track-field-league/,OUT 23/032,-1.497931582,54.9656323
Northern Track & Field League East Premier,9-Jul,Jul,Costello Stadium,Hull,1,,https://www.northernathletics.co.uk/track-field-league/,OUT 23/044,-0.4107359,53.7372742
Southern Athletics League Division 3 West,9-Jul,Jul,Charlton Centre Athletics Track,Andover,1,,https://www.southernathletics.org.uk/,OUT 23/060,-1.5098125,51.2201875
Southern Athletics League Division 2 North & East,9-Jul,Jul,Westminster Lodge Athletics Track,St. Albans,1,,https://www.southernathletics.org.uk/,OUT 23/070,-0.344495,51.745663
Southern Athletics League Division 2 North & East,9-Jul,Jul,Ridlins Wood Athletics Track,Stevenage,1,,https://www.southernathletics.org.uk/,OUT 23/070,-0.2027155,51.9016663
Southern Athletics League Division 2 North & East,9-Jul,Jul,Central Park Athletics Arena,Dartford,1,,https://www.southernathletics.org.uk/,OUT 23/070,0.220864,51.441631
Northern Track & Field League West 1S,9-Jul,Jul,The Sports Centre - Edge Hill University,Ormskirk,1,,https://www.northernathletics.co.uk/track-field-league/,OUT 23/075,-2.867699,53.557479
Northern Track & Field League West 1N,9-Jul,Jul,Witton Park Track,Blackburn,1,,https://www.northernathletics.co.uk/track-field-league/,OUT 23/084,-2.5148125,53.7391875
Northern Track & Field League North East Premier,9-Jul,Jul,Middlesbrough Sports Village,Middlesbrough,1,,https://www.northernathletics.co.uk/track-field-league/,OUT 23/107,-1.210556246,54.54434965
Northern Track & Field League East 2,9-Jul,Jul,Newark Sports Village,Newark,1,,https://www.northernathletics.co.uk/track-field-league/,OUT 23/120,-0.8000625,53.0620625
"4J Studios scottishathletics Combined Events, Masters & Parallel Success Open",9-Jul,Jul,Grangemouth Sports Stadium,Grangemouth,2,WA F,https://scottishathletics.sportserve.net/pages/event/athletics/athleticsfixturelist.aspx?pid=10000,OUT 23/126,-3.7081875,56.0053125
Midland Counties League Division 1,9-Jul,Jul,Harvey Hadden Athletic Stadium,Nottingham,1,,https://midland-athletics.co.uk/disciplines/league/,OUT 23/171,-1.216395,52.968063
Midland Counties League Division 4SE,9-Jul,Jul,North Oxfordshire Academy,Banbury,1,,https://midland-athletics.co.uk/disciplines/league/,OUT 23/172,-1.368062378,52.0729955
Southern Athletics League Divisions 3 Kent,9-Jul,Jul,Julie Rose Stadium,Ashford,1,,https://www.southernathletics.org.uk/,OUT 23/226,0.899562,51.1552996
Southern Athletics League Divisions 3 South,9-Jul,Jul,Julie Rose Stadium,Ashford,1,,https://www.southernathletics.org.uk/,OUT 23/226,0.899562,51.1552996
NatWest International Island Games 2023,9-Jul,Jul,Footes Lane (Garenne Stand),St. Peter Port,2,WA F,https://www.iiga.org/,OUT 23/229,-2.5639734,49.4645552
Midland Counties League Division 4NE,9-Jul,Jul,Wyndley Leisure Centre,Sutton Coldfield,1,,https://midland-athletics.co.uk/disciplines/league/,OUT 23/234,-1.8329144,52.5620004
